,SALE TYPE,SOLD DATE,PROPERTY TYPE,ADDRESS,CITY,STATE OR PROVINCE,ZIP OR POSTAL CODE,PRICE,BEDS_x,BATHS,LOCATION,SQUARE FEET,LOT SIZE,YEAR BUILT,DAYS ON MARKET,$/SQUARE FEET,HOA/MONTH,STATUS,NEXT OPEN HOUSE START TIME,NEXT OPEN HOUSE END TIME,URL (SEE http://www.redfin.com/buy-a-home/comparative-market-analysis FOR INFO ON PRICING),SOURCE,MLS#,FAVORITE,INTERESTED,LATITUDE,LONGITUDE,ZipBedKey,2019-09,BEDS_y,RegionName,monthlyCostEstimate,AvgRentVariance
0,MLS Listing,,Single Family Residential,967 Stonewood Ln,MAITLAND,FL,32751,439000.0,4,3.0,STONEWOOD FIRST ADD,2832,12103,1980,6,155,20,Active,,,http://www.redfin.com/FL/Maitland/967-Stonewood-Ln-32751/home/46426706,Stellar MLS,O5822611,N,Y,28.6417004,-81.3717774,32751-4,,,,2819.3752160883155,
1,MLS Listing,,Single Family Residential,1889 Pomegranate Ct,OCOEE,FL,34761,389000.0,5,4.0,ORCHARD PARK 46/76,3856,14042,2003,6,101,40,Active,,,http://www.redfin.com/FL/Ocoee/1889-Pomegranate-Ct-34761/home/46958791,Stellar MLS,O5822305,N,Y,28.6067934,-81.5138456,34761-5,,,,2538.1251914768895,
2,MLS Listing,,Single Family Residential,2105 Henderson Dr,ORLANDO,FL,32806,474900.0,3,2.5,CLOVERLAWN,2185,11774,2014,12,217,,Active,,,http://www.redfin.com/FL/Orlando/2105-Henderson-Dr-32806/home/52952417,Stellar MLS,O5821025,N,Y,28.5232025,-81.3539936,32806-3,1987.0,3,32806,3021.3127337593187,-1034.3127337593187
3,MLS Listing,,Single Family Residential,8331 Lake Park Estates Blvd,ORLANDO,FL,32818,264900.0,3,2.0,LAKE PARK ESTATES,1936,8045,2000,41,137,60,Active,,,http://www.redfin.com/FL/Orlando/8331-Lake-Park-Estates-Blvd-32818/home/46945607,Stellar MLS,O5813899,N,Y,28.5673352,-81.4932418,32818-3,1575.0,3,32818,1840.0626303913318,-265.0626303913318
4,MLS Listing,,Single Family Residential,15091 Cuddy Ct,ORLANDO,FL,32820,699999.0,6,5.0,ESTATES/LK PICKETT-PH 2,4877,21780,2019,47,144,143,Active,,,http://www.redfin.com/FL/Alafaya/Unknown-32820/home/168141402,Stellar MLS,O5813295,N,Y,28.59348962,-81.11975372,32820-6,,,,4287.494719559464,
5,MLS Listing,,Single Family Residential,5454 Baytowne Pl,OVIEDO,FL,32765,399900.0,4,2.5,LAKES OF ALOMA PH 2,2488,11045,1990,111,161,61,Active,,,http://www.redfin.com/FL/Oviedo/5454-Baytowne-Pl-32765/home/46446818,Stellar MLS,O5799035,N,Y,28.6161455,-81.2531094,32765-4,,,,2599.437696842181,
6,MLS Listing,,Single Family Residential,3227 Curving Oaks Way,ORLANDO,FL,32820,399000.0,5,3.0,CYPRESS LAKES PARCELS H AND I,3409,8665,2006,1,117,56,Active,,,http://www.redfin.com/FL/Orlando/3227-Curving-Oaks-Way-32820/home/46622549,Stellar MLS,S5025946,N,Y,28.5769431,-81.1171295,32820-5,,,,2594.3751963991745,
7,MLS Listing,,Condo/Co-op,1975 Erving Cir #106,OCOEE,FL,34761,115000.0,1,1.0,BORDEAUX,702,10224,2001,1,164,250,Active,,,http://www.redfin.com/FL/Ocoee/1975-Erving-Cir-34761/unit-106/home/46627218,Stellar MLS,U8064568,N,Y,28.5544931,-81.5115937,34761-1,,,,996.8750566062786,
8,MLS Listing,,Single Family Residential,8003 Palm Lake Dr,ORLANDO,FL,32819,1375000.0,5,6.5,PALM LAKE MANOR FIRST ADD,8747,43560,2005,1,157,,Active,,,http://www.redfin.com/FL/Orlando/8003-Palm-Lake-Dr-32819/home/46833112,Stellar MLS,O5824200,N,Y,28.47793,-81.4919766,32819-5,,,,8084.375676814199,
9,MLS Listing,,Single Family Residential,4326 Blonigen Ave Unit NO,ORLANDO,FL,32812,325000.0,4,3.0,CONWAY HILLS,2335,7654,1962,1,139,,Active,,,http://www.redfin.com/FL/Orlando/4326-Blonigen-Ave-32812/unit-NO/home/46796022,Stellar MLS,O5822522,N,Y,28.4901026,-81.3260816,32812-4,,,,2178.1251599742654,
10,MLS Listing,,Single Family Residential,2013 Greystone Trl,ORLANDO,FL,32818,190000.0,3,2.0,COUNTRY CHASE,1209,8700,1992,1,157,15,Active,,,http://www.redfin.com/FL/Orlando/2013-Greystone-Trl-32818/unit-3/home/46776338,Stellar MLS,O5824326,N,Y,28.5672212,-81.4903469,32818-3,1575.0,3,32818,1418.7500935234166,156.24990647658342
11,MLS Listing,,Single Family Residential,452 Ford Dr,ALTAMONTE SPRINGS,FL,32701,69000.0,3,1.0,OAK TERRACE,1036,12500,1958,1,67,,Active,,,http://www.redfin.com/FL/Altamonte-Springs/452-Ford-Dr-32701/home/46365491,Stellar MLS,O5824330,N,Y,28.6694438,-81.3506194,32701-3,,,,738.1250339637671,
12,MLS Listing,,Condo/Co-op,4801 S Texas Ave Unit B,ORLANDO,FL,32839,75000.0,1,1.0,MILLENNIUM PALMS,756,7053,1973,1,99,268,Active,,,http://www.redfin.com/FL/Orlando/4801-S-Texas-Ave-32839/unit-B/home/169726634,Stellar MLS,O5824230,N,Y,28.4923047,-81.4073708,32839-1,1210.0,1,32839,771.8750369171382,438.12496308286177
13,MLS Listing,,Single Family Residential,203 S Main (203b) St,WINTER GARDEN,FL,34787,479900.0,4,3.0,ANNIE L BERRY SUB,2185,14035,1916,1,220,,Active,,,http://www.redfin.com/FL/Winter-Garden/203-S-Main-St-34787/home/46838067,Stellar MLS,O5824129,N,Y,28.5632047,-81.5854113,34787-4,2275.0,4,34787,3049.4377362204614,-774.4377362204614
14,MLS Listing,,Single Family Residential,7607 Kings Passage Ave,ORLANDO,FL,32835,495000.0,4,3.0,WESTMINSTER LANDING PH 01,2544,12855,2000,1,195,133,Active,,,http://www.redfin.com/FL/Orlando/7607-Kings-Passage-Ave-32835/home/46748722,Stellar MLS,O5823989,N,Y,28.5066532,-81.4923197,32835-4,,,,3134.375243653112,
15,MLS Listing,,Single Family Residential,1822 Precious Cir,APOPKA,FL,32712,295000.0,4,3.0,STONEYWOOD PH 11,2211,9184,2003,1,133,37,Active,,,http://www.redfin.com/FL/Apopka/1822-Precious-Cir-32712/home/46974145,Stellar MLS,O5824150,N,Y,28.7119433,-81.5357725,32712-4,1962.5,4,32712,2009.37514520741,-46.875145207410014
16,MLS Listing,,Single Family Residential,3124 Holliday Ave,APOPKA,FL,32703,1490000.0,6,6.0,SUNSET BEACH,5005,39050,1997,1,298,,Active,,,http://www.redfin.com/FL/Apopka/3124-Holliday-Ave-32703/home/46402587,Stellar MLS,O5823874,N,Y,28.6602579,-81.4531757,32703-6,,,,8731.250733420478,
17,MLS Listing,,Townhouse,5828 Sagunto St,ORLANDO,FL,32807,175000.0,2,2.0,VILLAS COSTA DEL SOL,1361,4587,1989,1,129,75,Active,,,http://www.redfin.com/FL/Orlando/5828-Sagunto-St-32807/home/46918889,Stellar MLS,O5824152,N,Y,28.528228,-81.307394,32807-2,1200.0,2,32807,1334.375086139989,-134.37508613998898
18,MLS Listing,,Condo/Co-op,5402 Pine Creek Dr #1604,ORLANDO,FL,32811,125000.0,2,2.5,CYPRESS WOODS CONDO,1563,5811,1973,1,80,393,Active,,,http://www.redfin.com/FL/Orlando/5402-Pine-Creek-Dr-32811/unit-1604/home/46809172,Stellar MLS,O5824301,N,Y,28.4936897,-81.4539155,32811-2,1320.0,2,32811,1053.1250615285635,266.8749384714365
19,MLS Listing,,Single Family Residential,9441 Ashmore Ln,ORLANDO,FL,32825,400000.0,5,3.0,VILLAGES OF RIO PINAR PH 1,3724,11682,2002,1,107,56,Active,,,http://www.redfin.com/FL/Orlando/9441-Ashmore-Ln-32825/home/46941365,Stellar MLS,O5824297,N,Y,28.5189544,-81.2546581,32825-5,,,,2600.000196891404,
20,MLS Listing,,Single Family Residential,5446 Rishley Run Way,MOUNT DORA,FL,32757,369900.0,4,3.0,STONEYBROOK HILLS 18,3378,10838,2006,1,110,126,Active,,,http://www.redfin.com/FL/Mt-Dora/5446-Rishley-Run-Way-32757/unit-1/home/46609422,Stellar MLS,O5823841,N,Y,28.780534,-81.6148534,32757-4,,,,2430.687682075326,
21,MLS Listing,,Single Family Residential,2743 Breezy Meadow Rd,APOPKA,FL,32712,270000.0,3,2.0,ARBOR RDG PH 04 A & B,1920,12799,2009,1,141,65,Active,,,http://www.redfin.com/FL/Apopka/2743-Breezy-Meadow-Rd-32712/home/46667108,Stellar MLS,O5819038,N,Y,28.7191295,-81.5541365,32712-3,1600.0,3,32712,1868.7501329016973,-268.75013290169727
22,MLS Listing,,Single Family Residential,824 Ardenleigh Dr,ORLANDO,FL,32828,352000.0,4,3.0,HUCKLEBERRY FIELDS TR N5 UNIT 01,2346,8085,1993,1,150,61,Active,November-9-2019 10:00 AM,November-9-2019 01:00 PM,http://www.redfin.com/FL/Orlando/824-Ardenleigh-Dr-32828/unit-1/home/46919005,Stellar MLS,O5824287,N,Y,28.5313912,-81.2035763,32828-4,2062.5,4,32828,2330.000173264435,-267.50017326443503
23,MLS Listing,,Single Family Residential,616 Lake Orienta Dr,ALTAMONTE SPRINGS,FL,32701,525000.0,4,3.5,OAKLAND ESTATES 2ND SEC,2602,17575,1966,1,202,,Active,November-9-2019 11:00 AM,November-9-2019 04:00 PM,http://www.redfin.com/FL/Altamonte-Springs/616-Lake-Orienta-Dr-32701/home/46426387,Stellar MLS,O5823470,N,Y,28.6519165,-81.3756217,32701-4,,,,3303.1252584199674,
24,MLS Listing,,Single Family Residential,1877 Blue Fox Ct,ORLANDO,FL,32825,259900.0,3,2.0,CYPRESS SPGS PH 01,1337,5087,1990,1,194,51,Active,,,http://www.redfin.com/FL/Orlando/1877-Blue-Fox-Ct-32825/unit-3/home/46719096,Stellar MLS,O5822439,N,Y,28.5202092,-81.2320692,32825-3,1605.0,3,32825,1811.9376279301894,-206.93762793018936
25,MLS Listing,,Single Family Residential,3706 Holly Grove Ln,MOUNT DORA,FL,32757,272400.0,4,2.0,HOLLY ESTATES PHASE 1,1828,6000,2020,1,149,53,Active,,,http://www.redfin.com/FL/Mt-Dora/3706-Holly-Dr-32757/home/169705242,Stellar MLS,O5824290,N,Y,28.73998216,-81.61845325,32757-4,,,,1882.2501340830459,
26,MLS Listing,,Single Family Residential,6330 Hidden Dale Ave,ORLANDO,FL,32819,385000.0,4,2.0,SAND LAKE HILLS SEC 05,1943,11368,1979,1,198,,Active,,,http://www.redfin.com/FL/Orlando/6330-Hidden-Dale-Ave-32819/home/46833431,Stellar MLS,S5025954,N,Y,28.4700811,-81.5014754,32819-4,,,,2515.6251895079763,
27,MLS Listing,,Single Family Residential,1107 Kimball Dr #3,OCOEE,FL,34761,165000.0,3,1.0,PEACH LAKE MANOR,1051,8296,1959,1,157,,Active,,,http://www.redfin.com/FL/Ocoee/1107-Kimball-Dr-34761/unit-3/home/46733766,Stellar MLS,O5824279,N,Y,28.5839998,-81.5264602,34761-3,1640.0,3,34761,1278.125081217704,361.87491878229594
28,MLS Listing,,Single Family Residential,4814 Deauville Dr,ORLANDO,FL,32808,165000.0,3,2.0,PINE HILLS SUB 6,945,6325,1954,1,175,,Active,,,http://www.redfin.com/FL/Orlando/4814-Deauville-Dr-32808/home/46811721,Stellar MLS,O5824282,N,Y,28.5563027,-81.445602,32808-3,1250.0,3,32808,1278.125081217704,-28.125081217704064
29,MLS Listing,,Single Family Residential,1229 Red Dandy Dr,ORLANDO,FL,32818,300000.0,4,2.0,ROSE HILL PH 03,2274,9860,1988,1,132,16,Active,,,http://www.redfin.com/FL/Orlando/1229-Red-Dandy-Dr-32818/home/46822854,Stellar MLS,O5822468,N,Y,28.5605064,-81.5117019,32818-4,,,,2037.5001476685527,
30,MLS Listing,,Single Family Residential,1772 Pine Ave,WINTER PARK,FL,32789,450000.0,2,1.0,CONWILL ESTATES,1432,11698,1955,1,314,,Active,,,http://www.redfin.com/FL/Winter-Park/1772-Pine-Ave-32789/home/46902238,Stellar MLS,O5824281,N,Y,28.6107993,-81.3287893,32789-2,,,,2881.250221502829,
31,MLS Listing,,Condo/Co-op,300 New Waterford Pl #104,LONGWOOD,FL,32779,164900.0,2,2.0,LAKEVIEW GARDENS AT WEKIVA COVE 1 A CONDO,1176,1121,1986,1,140,369,Active,,,http://www.redfin.com/FL/Longwood/300-New-Waterford-Pl-32779/unit-104/home/46364652,Stellar MLS,O5824177,N,Y,28.6812619,-81.4572157,32779-2,1325.0,2,32779,1277.562581168481,47.437418831518926
32,MLS Listing,,Single Family Residential,1461 Canal Point Dr,LONGWOOD,FL,32750,409500.0,3,3.5,BOLLING FARMS,2986,12065,2002,1,137,52,Active,November-7-2019 03:30 PM,November-7-2019 06:00 PM,http://www.redfin.com/FL/Longwood/1461-Canal-Point-Rd-32750/home/46470182,Stellar MLS,O5824182,N,Y,28.7248368,-81.3720996,32750-3,,,,2653.4377015675745,
33,MLS Listing,,Single Family Residential,1944 Florence Vista Blvd,ORLANDO,FL,32818,335000.0,4,3.0,LAKE FLORENCE,2643,11979,2000,1,127,30,Active,,,http://www.redfin.com/FL/Orlando/1944-Florence-Vista-Blvd-32818/home/46945648,Stellar MLS,O5823197,N,Y,28.5679893,-81.5076286,32818-4,,,,2234.3751648965504,
34,MLS Listing,,Single Family Residential,736 N Lakewood Ave,OCOEE,FL,34761,249900.0,4,2.5,SEEGAR SUB,1883,5800,2009,1,133,,Active,,,http://www.redfin.com/FL/Ocoee/736-N-Lakewood-Ave-34761/home/46805629,Stellar MLS,O5824258,N,Y,28.5796948,-81.5428229,34761-4,,,,1755.6876230079042,
35,MLS Listing,,Single Family Residential,1711 Gay Dr,ORLANDO,FL,32803,499000.0,3,2.0,ROWENA PARK 02,2100,9130,1953,1,238,,Active,,,http://www.redfin.com/FL/Orlando/1711-Gay-Dr-32803/home/46770878,Stellar MLS,O5824261,N,Y,28.5672115,-81.361575,32803-3,2042.5,3,32803,3156.875245622026,-1114.375245622026
36,MLS Listing,,Condo/Co-op,6160 Westgate Dr #301,ORLANDO,FL,32835,112500.0,1,1.0,CENTRAL PARK METROWEST CONDO,1228,4445,1988,1,92,298,Active,,,http://www.redfin.com/FL/Orlando/6160-Westgate-Dr-32835/unit-301/home/46627773,Stellar MLS,O5824126,N,Y,28.5310256,-81.4666462,32835-1,1170.0,1,32835,982.8125553757072,187.18744462429277
37,MLS Listing,,Single Family Residential,2622 Ultra Vista Dr,MAITLAND,FL,32751,499000.0,4,3.5,BRITTANY GARDENS 1-A,3389,7335,1995,1,147,62,Active,,,http://www.redfin.com/FL/Maitland/2622-Ultra-Vista-Dr-32751/home/46439217,Stellar MLS,O5823958,N,Y,28.6304528,-81.3278007,32751-4,,,,3156.875245622026,
38,MLS Listing,,Vacant Land,Casselberry,CASSELBERRY,FL,32707,14000.0,,,CASSELBERRY,,18890,,1,,,Active,,,http://www.redfin.com/FL/Casselberry/Casselberry-32707/home/144287865,Stellar MLS,O5824239,N,Y,28.671605,-81.298673,32707-nan,,,,428.7500068911991,
39,MLS Listing,,Condo/Co-op,5505 Hernandes Dr #223,ORLANDO,FL,32808,55000.0,1,1.0,SILVER PINES GOLF VILLAGE CONDO,586,228420,1968,1,94,184,Active,,,http://www.redfin.com/FL/Orlando/5505-Hernandes-Dr-32808/unit-223/home/46806331,Stellar MLS,O5824117,N,Y,28.570138,-81.4543466,32808-1,,,,659.3750270725681,
40,MLS Listing,,Condo/Co-op,5483 Vineland Rd #10307,ORLANDO,FL,32811,160000.0,2,2.0,CYPRESS FAIRWAY CONDO,1043,,2000,1,153,288,Active,,,http://www.redfin.com/FL/Orlando/5483-Vineland-Rd-32811/unit-10307/home/169690975,Stellar MLS,O5824247,N,Y,28.4837171,-81.451159,32811-2,1320.0,2,32811,1250.0000787565612,69.99992124343885
41,MLS Listing,,Single Family Residential,1215 Druid Rd,MAITLAND,FL,32751,495000.0,3,2.0,DRUID HILLS,2234,18170,1964,1,222,,Active,November-10-2019 01:00 AM,November-10-2019 04:00 PM,http://www.redfin.com/FL/Maitland/1215-Druid-Rd-32751/home/46852763,Stellar MLS,O5824140,N,Y,28.640082,-81.377289,32751-3,2014.0,3,32751,3134.375243653112,-1120.3752436531122
42,MLS Listing,,Single Family Residential,68 Carriage Hill Cir,CASSELBERRY,FL,32707,219900.0,4,2.0,CARRIAGE HILL UNIT 1,1734,9011,1967,1,127,,Active,,,http://www.redfin.com/FL/Casselberry/68-Carriage-Hill-Cir-32707/home/46401021,Stellar MLS,O5824242,N,Y,28.6576508,-81.3309812,32707-4,,,,1586.937608241049,
43,MLS Listing,,Single Family Residential,16887 Broadwater Ave,WINTER GARDEN,FL,34787,2555000.0,4,4.5,WATERSIDE 90'S,5142,20684,2019,1,497,239,Active,,,http://www.redfin.com/FL/Winter-Garden/16887-Broadwater-Ave-34787/home/64115180,Stellar MLS,T3208951,N,Y,28.5163176,-81.6393403,34787-4,2275.0,4,34787,14721.87625764384,-12446.87625764384
44,MLS Listing,,Single Family Residential,1941 Legion Dr,WINTER PARK,FL,32789,4699000.0,7,9.0,GREEN OAKS REP 02,10493,103646,2008,1,448,,Active,,,http://www.redfin.com/FL/Winter-Park/1941-Legion-Dr-32789/home/46894677,Stellar MLS,O5824139,N,Y,28.6177342,-81.3590618,32789-7,,,,26781.87731298176,
45,MLS Listing,,Single Family Residential,4771 Arrow Rd,ORLANDO,FL,32812,298000.0,3,2.0,GATLIN HEIGHTS,1868,8580,1975,1,160,,Active,,,http://www.redfin.com/FL/Orlando/4771-Arrow-Rd-32812/home/46796383,Stellar MLS,O5824202,N,Y,28.4925505,-81.317657,32812-3,,,,2026.2501466840956,
46,MLS Listing,,Single Family Residential,2909 Bridgegate Ct,ORLANDO,FL,32822,277000.0,2,2.0,AUTUMN GREEN VILLAGE,1648,5050,1981,1,168,144,Active,,,http://www.redfin.com/FL/Orlando/2909-Bridgegate-Ct-32822/home/46700259,Stellar MLS,O5824180,N,Y,28.5131678,-81.2962045,32822-2,1350.0,2,32822,1908.1251363472968,-558.1251363472968
47,MLS Listing,,Single Family Residential,9857 Lancewood St,ORLANDO,FL,32817,169000.0,2,2.0,RIVERWOOD,1158,5616,1984,1,146,,Active,,,http://www.redfin.com/FL/Orlando/9857-Lancewood-St-32817/home/46808724,Stellar MLS,O5824181,N,Y,28.577014,-81.247955,32817-2,1349.0,2,32817,1300.625083186618,48.374916813382015
48,MLS Listing,,Single Family Residential,16893 Broadwater Ave,WINTER GARDEN,FL,34787,1700000.0,6,4.5,WATERSIDE 90'S,4474,19162,2019,1,380,239,Active,,,http://www.redfin.com/FL/Winter-Garden/16893-Broadwater-Ave-34787/home/64115181,Stellar MLS,T3208941,N,Y,28.5161524,-81.6395972,34787-6,,,,9912.500836788464,
49,MLS Listing,,Single Family Residential,1936 Water Ln,MAITLAND,FL,32751,174900.0,2,2.0,BRANCH TREE,1182,4966,1983,1,148,14,Active,,,http://www.redfin.com/FL/Maitland/1936-Water-Ln-32751/home/46438910,Stellar MLS,O5824184,N,Y,28.629432,-81.322998,32751-2,1775.0,2,32751,1333.8125860907662,441.1874139092338
50,MLS Listing,,Single Family Residential,340 Largovista Dr,OAKLAND,FL,34787,349988.0,4,2.0,JOHNS LANDING PH 02 48 138,1959,10372,2003,1,179,66,Active,November-9-2019 12:00 AM,November-9-2019 03:00 PM,http://www.redfin.com/FL/Oakland/340-Largovista-Dr-34787/home/46963005,Stellar MLS,O5824186,N,Y,28.5454321,-81.6302443,34787-4,2275.0,4,34787,2318.682672274071,-43.68267227407114
51,MLS Listing,,Single Family Residential,1400 Doreen Ave #4,OCOEE,FL,34761,200000.0,3,1.5,PEACH LAKE MANOR,1167,12491,1960,1,171,,Active,,,http://www.redfin.com/FL/Ocoee/1400-Doreen-Ave-34761/unit-4/home/46734016,Stellar MLS,O5824044,N,Y,28.5873991,-81.5270925,34761-3,1640.0,3,34761,1475.000098445702,164.99990155429805
52,MLS Listing,,Single Family Residential,1230 Mercedes Pl,ORLANDO,FL,32804,649000.0,4,3.0,EDGEWATER HEIGHTS 02,2814,7123,2003,1,231,,Active,,,http://www.redfin.com/FL/Orlando/1230-Mercedes-Pl-32804/home/46831028,Stellar MLS,O5823907,N,Y,28.5625552,-81.3964508,32804-4,,,,4000.625319456302,
53,MLS Listing,,Single Family Residential,1907 Lady Ave,OCOEE,FL,34761,169900.0,2,1.0,JESSICA MANOR,1236,7561,1981,1,137,,Active,,,http://www.redfin.com/FL/Ocoee/1907-Lady-Ave-34761/home/46733157,Stellar MLS,T3208886,N,Y,28.5931086,-81.5279499,34761-2,,,,1305.6875836296235,
54,MLS Listing,,Mobile/Manufactured Home,4169 Greenbluff Ct #791,ZELLWOOD,FL,32798,162900.0,3,2.0,ZELLWOOD STATION COOP MH PARK,1430,6106,2006,1,114,285,Active,,,http://www.redfin.com/FL/Zellwood/4169-Greenbluff-Ct-32798/unit-791/home/46852021,Stellar MLS,O5824158,N,Y,28.7267813,-81.5815294,32798-3,,,,1266.3125801840242,
55,MLS Listing,,Single Family Residential,440 Clarendon Ave,WINTER PARK,FL,32789,869000.0,4,3.5,VIRGINIA HEIGHTS REP,3184,7500,1999,1,273,,Active,November-10-2019 01:00 PM,November-10-2019 03:00 PM,http://www.redfin.com/FL/Winter-Park/440-Clarendon-Ave-32789/home/46726736,Stellar MLS,O5824125,N,Y,28.5887041,-81.3545722,32789-4,,,,5238.125427746574,
56,MLS Listing,,Vacant Land,Newburg St Unit 12A,ORLANDO,FL,32833,65000.0,,,CAPE ORLANDO ESTATES,,59678,,1,,,Active,,,http://www.redfin.com/FL/Wedgefield/Newburg-St-32833/unit-12A/home/46751420,Stellar MLS,O5824123,N,Y,28.502029,-81.098051,32833-nan,,,,715.625031994853,
57,MLS Listing,,Single Family Residential,2340 Lafayette Ave,WINTER PARK,FL,32789,1375000.0,4,4.0,FONTAINEBLEAU,3406,15024,2019,1,404,,Active,,,http://www.redfin.com/FL/Winter-Park/2340-Lafayette-Ave-32789/home/46902328,Stellar MLS,O5817650,N,Y,28.6202482,-81.3347416,32789-4,,,,8084.375676814199,
58,MLS Listing,,Single Family Residential,980 Talon Pl,WINTER SPRINGS,FL,32708,642014.0,4,4.0,NORTHERN OAKS,3100,7500,2020,1,207,157,Active,,,http://www.redfin.com/FL/Winter-Springs/980-Talon-PL-32708/home/169676237,Stellar MLS,O5824196,N,Y,28.69280985,-81.21442291,32708-4,,,,3961.329066017594,
59,MLS Listing,,Single Family Residential,3505 Legacy Hills Ct,LONGWOOD,FL,32779,1300000.0,4,4.5,ALAQUA LAKES PH 5B,4887,25578,2003,1,266,351,Active,,,http://www.redfin.com/FL/Longwood/3505-Legacy-Hills-Ct-32779/home/46472634,Stellar MLS,O5824078,N,Y,28.757245,-81.3944541,32779-4,,,,7662.500639897061,
60,MLS Listing,,Townhouse,3930 Magnolia Pointe Ln,ORLANDO,FL,32810,125000.0,2,2.0,MAGNOLIA POINTE,932,6429,1984,1,134,,Active,,,http://www.redfin.com/FL/Orlando/3930-Magnolia-Pointe-Ln-32810/home/46901743,Stellar MLS,O5824201,N,Y,28.622377,-81.428543,32810-2,1480.0,2,32810,1053.1250615285635,426.8749384714365
61,MLS Listing,,Single Family Residential,16899 Broadwater Ave,WINTER GARDEN,FL,34787,1600000.0,4,3.5,WATERSIDE 90'S,2937,20119,2018,1,545,239,Active,,,http://www.redfin.com/FL/Winter-Garden/16899-Broadwater-Ave-34787/home/64115182,Stellar MLS,T3208928,N,Y,28.516209,-81.639876,34787-4,2275.0,4,34787,9350.000787565616,-7075.000787565616
62,MLS Listing,,Condo/Co-op,6080 Peregrine Ave Unit A12-1,ORLANDO,FL,32819,93775.0,1,1.0,WINDHOVER CONDO,591,6418,1974,1,159,219,Active,,,http://www.redfin.com/FL/Orlando/6080-Peregrine-Ave-32819/unit-A12-1/home/145506002,Stellar MLS,O5824178,N,Y,28.4857147,-81.4606631,32819-1,,,,877.4844211587284,
63,MLS Listing,,Single Family Residential,2751 Lake Pickett Pl,CHULUOTA,FL,32766,1350000.0,5,4.0,LAKE PICKET WOODS,3015,286625,2000,1,448,100,Active,,,http://www.redfin.com/FL/Chuluota/2751-Lake-Pickett-Pl-32766/home/46454544,Stellar MLS,O5822260,N,Y,28.614289,-81.123874,32766-5,,,,7943.750664508487,
64,MLS Listing,,Townhouse,2039 Meeting Pl,ORLANDO,FL,32814,464900.0,4,3.0,BALDWIN PARK UT 2 REP 1,2094,1207,2010,1,222,344,Active,,,http://www.redfin.com/FL/Orlando/2039-Meeting-Pl-32814/unit-2/home/46662425,Stellar MLS,O5824190,N,Y,28.570059,-81.33136,32814-4,,,,2965.0627288370333,
65,MLS Listing,,Single Family Residential,1315 Carlsbad Pl,ORLANDO,FL,32808,149999.0,3,1.0,LAKE LAWNE SHORES,875,5827,1956,1,171,,Active,,,http://www.redfin.com/FL/Orlando/1315-Carlsbad-Pl-32808/home/46818042,Stellar MLS,O5824172,N,Y,28.5586038,-81.4311819,32808-3,1250.0,3,32808,1193.744448833784,56.25555116621604
66,MLS Listing,,Single Family Residential,13015 Boyne Highland Ct,ORLANDO,FL,32828,359000.0,4,2.5,DEER RUN SOUTH PUD PH 01 PRCL 11,2506,7025,1992,1,143,116,Active,,,http://www.redfin.com/FL/Orlando/13015-Boyne-Highland-Ct-32828/home/46925911,Stellar MLS,O5823759,N,Y,28.5321329,-81.194105,32828-4,2062.5,4,32828,2369.3751767100343,-306.87517671003434
67,MLS Listing,,Townhouse,1921 Compass Flower Way,OCOEE,FL,34761,224900.0,3,2.5,PRAIRIE LAKE RESERVE A B B2 E G,1796,1700,2008,1,125,210,Active,,,http://www.redfin.com/FL/Ocoee/1921-Compass-Flower-Way-34761/home/46656933,Stellar MLS,O5823835,N,Y,28.5909786,-81.5123664,34761-3,1640.0,3,34761,1615.0626107021917,24.937389297808295
68,MLS Listing,,Single Family Residential,336 E Orange St,ALTAMONTE SPRINGS,FL,32701,325000.0,4,2.0,WEST ALTAMONTE HEIGHTS,1668,14400,1973,1,195,,Active,November-9-2019 11:00 AM,November-9-2019 03:00 PM,http://www.redfin.com/FL/Altamonte-Springs/336-E-Orange-St-32701/home/169667010,Stellar MLS,O5824035,N,Y,28.6739377,-81.3792794,32701-4,,,,2178.1251599742654,
69,MLS Listing,,Single Family Residential,815 Daybreak Pl,LONGWOOD,FL,32750,469265.0,5,4.0,OAKMONT RESERVE,3070,6500,2020,1,153,130,Active,,,http://www.redfin.com/FL/Longwood/Unknown-32750/home/148371487,Stellar MLS,O5824175,N,Y,28.71105704,-81.34850088,32750-5,,,,2989.6158559856112,
70,MLS Listing,,Single Family Residential,1420 Silverthorn Dr,ORLANDO,FL,32825,246900.0,3,2.0,STURBRIDGE,1716,6370,1989,1,144,35,Active,,,http://www.redfin.com/FL/Orlando/1420-Silverthorn-Dr-32825/home/46824981,Stellar MLS,O5824033,N,Y,28.5637743,-81.218857,32825-3,1605.0,3,32825,1738.8126215312186,-133.8126215312186
71,MLS Listing,,Single Family Residential,2471 Island Dr,LONGWOOD,FL,32779,425000.0,4,2.0,LAKE BRANTLEY ISLES 1ST ADD,1734,15000,1986,1,245,23,Active,November-10-2019 01:00 PM,November-10-2019 03:00 PM,http://www.redfin.com/FL/Longwood/2471-Island-Dr-32779/home/46359245,Stellar MLS,O5823931,N,Y,28.6955766,-81.4282847,32779-4,,,,2740.625209197116,
72,MLS Listing,,Single Family Residential,5149 Creusot Ct,EDGEWOOD,FL,32839,318900.0,4,2.5,LAKE JESSAMINE ESTATES,2221,8203,1990,1,144,24,Active,,,http://www.redfin.com/FL/Orlando/5149-Creusot-Ct-32839/home/46773072,Stellar MLS,O5820050,N,Y,28.4838606,-81.3772539,32839-4,,,,2143.8126569716715,
73,MLS Listing,,Single Family Residential,2206 Maryday Ct,ORLANDO,FL,32812,324900.0,3,2.5,WEDGEWOOD GROVES UNIT 03,1948,7190,1989,1,167,38,Active,November-9-2019 12:00 PM,November-9-2019 03:00 PM,http://www.redfin.com/FL/Orlando/2206-Maryday-Ct-32812/unit-3/home/46718315,Stellar MLS,O5823915,N,Y,28.5179438,-81.3389745,32812-3,,,,2177.5626599250427,
74,MLS Listing,,Single Family Residential,981 Talon Pl,WINTER SPRINGS,FL,32708,537794.0,4,4.0,NORTHERN OAKS,2687,7503,2020,1,200,157,Active,,,http://www.redfin.com/FL/Winter-Springs/981-Talon-PL-32708/home/169657934,Stellar MLS,O5824099,N,Y,28.69315626,-81.21470951,32708-4,,,,3375.0915147175388,
75,MLS Listing,,Single Family Residential,965 Talon Pl,WINTER SPRINGS,FL,32708,685185.0,5,3.5,NORTHERN OAKS,3628,7500,2020,1,189,157,Active,,,http://www.redfin.com/FL/Winter-Springs/965-Talon-PL-32708/home/169657892,Stellar MLS,O5824135,N,Y,28.69191982,-81.21194701,32708-5,,,,4204.165962267591,
76,MLS Listing,,Single Family Residential,3977 Kingsport Dr,ORLANDO,FL,32839,195000.0,4,2.0,IMPERIAL ESTATES,1321,6602,1970,1,148,,Active,,,http://www.redfin.com/FL/Orlando/3977-Kingsport-Dr-32839/unit-2/home/46825820,Stellar MLS,O5823663,N,Y,28.4786612,-81.4244859,32839-4,,,,1446.8750959845593,
77,MLS Listing,,Condo/Co-op,151 E Washington St #409,ORLANDO,FL,32801,128000.0,1,1.0,METROPOLITAN/LK EOLA,554,83466,1963,1,231,300,Active,,,http://www.redfin.com/FL/Orlando/151-E-Washington-St-32801/unit-409/home/46605176,Stellar MLS,O5823833,N,Y,28.5437393,-81.3764563,32801-1,1624.5,1,32801,1070.000063005249,554.4999369947509
78,MLS Listing,,Townhouse,304 Canyon Stone Cir,LAKE MARY,FL,32746,253000.0,3,2.5,LAKE MARY LANDINGS,1680,3000,2006,1,151,230,Active,,,http://www.redfin.com/FL/Lake-Mary/304-Canyon-Stone-Cir-32746/home/46334814,Stellar MLS,O5823466,N,Y,28.73969,-81.304832,32746-3,1750.0,3,32746,1773.1251245338126,-23.125124533812595
79,MLS Listing,,Single Family Residential,5632 Pats Pt,WINTER PARK,FL,32792,360000.0,5,3.5,BEAR GULLY FOREST,2325,4363,2003,1,155,43,Active,,,http://www.redfin.com/FL/Winter-Park/5632-Pats-Pt-32792/home/46475318,Stellar MLS,O5823179,N,Y,28.614999,-81.273876,32792-5,,,,2375.0001772022633,
80,MLS Listing,,Single Family Residential,1674 Juniper Hammock St,WINTER GARDEN,FL,34787,497314.0,4,3.0,MCALLISTER LANDING PHASE 2,3380,10918,2020,1,147,142,Active,,,http://www.redfin.com/FL/Winter-Garden/1674-Juniper-Hammock-St-34787/home/169657681,Stellar MLS,O5823849,N,Y,28.5922901,-81.5724351,34787-4,2275.0,4,34787,3147.3914947921285,-872.3914947921285
81,MLS Listing,,Single Family Residential,658 Brooks Fld,WINTER GARDEN,FL,34787,536328.0,5,4.0,MCALLISTER LANDING PHASE 2,3230,10921,2020,1,166,142,Active,,,http://www.redfin.com/FL/Winter-Garden/658-Brooks-FLD-34787/home/169657679,Stellar MLS,O5823411,N,Y,28.49859,-81.621237,34787-5,,,,3366.845263995932,
82,MLS Listing,,Single Family Residential,1051 Aloma Ave,WINTER PARK,FL,32789,720000.0,3,4.0,OSCEOLA SUMMIT,2274,10093,1998,1,317,,Active,,,http://www.redfin.com/FL/Winter-Park/1051-Aloma-Ave-32789/home/46712719,Stellar MLS,O5822324,N,Y,28.6005746,-81.3382655,32789-3,2655.0,3,32789,4400.000354404527,-1745.0003544045267
83,MLS Listing,,Single Family Residential,976 Talon Pl,WINTER SPRINGS,FL,32708,658000.0,5,2.5,NORTHERN OAKS,3628,7500,2020,1,181,157,Active,,,http://www.redfin.com/FL/Winter-Springs/976-Talon-PL-32708/home/169657447,Stellar MLS,O5824116,N,Y,28.60967585,-81.21527203,32708-5,,,,4051.2503238863587,
84,MLS Listing,,Single Family Residential,669 San Pablo Ave,CASSELBERRY,FL,32707,234500.0,3,2.0,SAUSALITO SEC 2,1547,6155,1978,1,152,20,Active,,,http://www.redfin.com/FL/Casselberry/669-San-Pablo-Ave-32707/home/46415831,Stellar MLS,O5824052,N,Y,28.6430017,-81.3161955,32707-3,1694.0,3,32707,1669.0626154275853,24.937384572414658
85,MLS Listing,,Townhouse,4521 Oxen Hill Loop,OVIEDO,FL,32765,265000.0,3,3.5,MADISON PLACE TWNHMS,1705,2730,2005,1,155,250,Active,November-7-2019 04:00 PM,November-7-2019 07:00 PM,http://www.redfin.com/FL/Oviedo/4521-Oxen-Hill-Loop-32765/home/46328641,Stellar MLS,O5824022,N,Y,28.639231,-81.267509,32765-3,1795.0,3,32765,1840.6251304405548,-45.62513044055481
86,MLS Listing,,Single Family Residential,8126 Gandy Way,ORLANDO,FL,32810,295000.0,3,2.0,MAGNOLIA VILLAGE,1592,22210,1982,1,185,,Active,,,http://www.redfin.com/FL/Orlando/8126-Gandy-Way-32810/unit-1/home/46881709,Stellar MLS,V4910519,N,Y,28.6301295,-81.4305381,32810-3,1500.0,3,32810,2009.37514520741,-509.37514520741
87,MLS Listing,,Single Family Residential,329 W Hornbeam Dr,LONGWOOD,FL,32779,349900.0,4,2.0,SABAL POINT,2254,15949,1978,1,155,37,Active,,,http://www.redfin.com/FL/Longwood/329-W-Hornbeam-Dr-32779/home/46451749,Stellar MLS,O5824114,N,Y,28.7081412,-81.4179181,32779-4,,,,2318.187672230755,
88,MLS Listing,,Single Family Residential,4609 Jetty St,ORLANDO,FL,32817,449000.0,5,3.0,GEORGIA COVE 44/1,3780,8998,2001,1,119,48,Active,,,http://www.redfin.com/FL/Orlando/4609-Jetty-St-32817/home/46940766,Stellar MLS,O5823636,N,Y,28.6028323,-81.2493234,32817-5,,,,2875.6252210106004,
89,MLS Listing,,Condo/Co-op,5104 Conroy Rd #214,ORLANDO,FL,32811,99000.0,1,1.0,RESIDENCES/MILLENIA,711,8799,1988,1,139,256,Active,,,http://www.redfin.com/FL/Orlando/5104-Conroy-Rd-32811/unit-214/home/169656937,Stellar MLS,O5824107,N,Y,28.4961967,-81.4473399,32811-1,1061.0,1,32811,906.8750487306224,154.12495126937756
90,MLS Listing,,Single Family Residential,5480 Penway Dr,ORLANDO,FL,32814,583000.0,4,2.5,BALDWIN PARK,2687,3090,2006,1,217,57,Active,,,http://www.redfin.com/FL/Orlando/5480-Penway-Dr-32814/unit-9A/home/46606959,Stellar MLS,O5824109,N,Y,28.567075,-81.3170122,32814-4,,,,3629.3752869692203,
91,MLS Listing,,Condo/Co-op,4312 Hector Ct #4,ORLANDO,FL,32822,120000.0,2,2.0,RESERVE AT PERSHING OAKS CONDO,876,,1987,1,137,160,Active,,,http://www.redfin.com/FL/Orlando/4312-Hector-Ct-32822/unit-4/home/46642621,Stellar MLS,O5824004,N,Y,28.5013862,-81.2958308,32822-2,1350.0,2,32822,1025.000059067421,324.99994093257897
92,MLS Listing,,Single Family Residential,6013 Navajo Way,ORLANDO,FL,32807,199000.0,3,1.0,ENGELWOOD PARK,1012,8001,1956,1,197,,Active,,,http://www.redfin.com/FL/Orlando/6013-Navajo-Way-32807/unit-2/home/46917574,Stellar MLS,O5823683,N,Y,28.5348576,-81.3035136,32807-3,1400.0,3,32807,1469.3750979534732,-69.37509795347319
93,MLS Listing,,Single Family Residential,311 Montrose St,WINTER SPRINGS,FL,32708,240000.0,3,2.0,HIGHLAND VILLAGE 1,1730,4134,1986,1,139,22,Active,,,http://www.redfin.com/FL/Winter-Springs/311-Montrose-St-32708/home/46456397,Stellar MLS,O5824086,N,Y,28.705671,-81.311046,32708-3,1640.0,3,32708,1700.000118134842,-60.00011813484207
94,MLS Listing,,Single Family Residential,13633 Mirror Lake Dr,ORLANDO,FL,32828,285000.0,3,2.0,AVALON LAKES PH 01 VILLAGE I & J,1965,5500,2003,1,145,95,Active,,,http://www.redfin.com/FL/Orlando/13633-Mirror-Lake-Dr-32828/home/46973725,Stellar MLS,O5823580,N,Y,28.5273875,-81.1580605,32828-3,1710.0,3,32828,1953.125140285125,-243.1251402851251
95,MLS Listing,,Single Family Residential,5901 Holmes Dr,ORLANDO,FL,32808,189900.0,4,2.0,ROBINSWOOD HEIGHTS 2ND ADD,1414,8993,1963,1,134,,Active,,,http://www.redfin.com/FL/Orlando/5901-Holmes-Dr-32808/home/46770014,Stellar MLS,T3208788,N,Y,28.57225,-81.4616926,32808-4,,,,1418.1875934741938,
96,MLS Listing,,Condo/Co-op,3601 Seneca Club Loop #9,ORLANDO,FL,32808,168500.0,2,2.0,WESTWOODCONDOMINIUM 2 PHASE 9 20170137200 UNIT 9-,1147,1158,2017,1,147,175,Active,,,http://www.redfin.com/FL/Orlando/3601-Seneca-Club-Loop-32808/unit-9/home/114093173,Stellar MLS,O5821103,N,Y,28.5887842,-81.424211,32808-2,1150.0,2,32808,1297.8125829405037,-147.81258294050372
97,MLS Listing,,Single Family Residential,1036 Manigan Ave,OVIEDO,FL,32765,289900.0,4,3.0,ALAFAYA WOODS PH 18,1732,6551,1989,1,167,15,Active,,,http://www.redfin.com/FL/Oviedo/1036-Manigan-Ave-32765/home/46424255,Stellar MLS,O5823978,N,Y,28.654251,-81.179982,32765-4,,,,1980.6876426970446,
98,MLS Listing,,Townhouse,709 Saint Matthew Cir #609,ALTAMONTE SPRINGS,FL,32714,184900.0,3,3.0,JAMESTOWN VILLAGE UNIT 1,1548,1391,1974,1,119,250,Active,,,http://www.redfin.com/FL/Altamonte-Springs/709-St-Matthew-Cir-32714/unit-609/home/46372335,Stellar MLS,O5823894,N,Y,28.681634,-81.412812,32714-3,1485.0,3,32714,1390.0625910130511,94.93740898694887
99,MLS Listing,,Single Family Residential,2109 Elizabeth Ave,ORLANDO,FL,32804,829000.0,4,3.5,ROSE TERRACE,3624,6505,2004,1,229,,Active,November-9-2019 01:00 PM,November-9-2019 04:00 PM,http://www.redfin.com/FL/Orlando/2109-Elizabeth-Ave-32804/home/46779292,Stellar MLS,O5823990,N,Y,28.5707088,-81.3845124,32804-4,,,,5013.125408057434,
100,MLS Listing,,Single Family Residential,267 Beacon Pointe Dr,OCOEE,FL,34761,440000.0,5,3.0,FORESTBROOKE,3362,19827,2005,1,131,95,Active,,,http://www.redfin.com/FL/Ocoee/267-Beacon-Pointe-Dr-34761/home/46587632,Stellar MLS,O5823452,N,Y,28.6180688,-81.5501512,34761-5,,,,2825.0002165805436,
101,MLS Listing,,Single Family Residential,2513 Stoneview Rd,ORLANDO,FL,32806,839900.0,4,4.5,PORTER PLACE,4191,14503,2009,1,200,113,Active,,,http://www.redfin.com/FL/Orlando/2513-Stoneview-Rd-32806/home/46723959,Stellar MLS,O5823973,N,Y,28.5187046,-81.3512424,32806-4,,,,5074.437913422725,
102,MLS Listing,,Single Family Residential,4038 Amron Dr,ORLANDO,FL,32822,149900.0,3,2.0,EAST ORLANDO SEC 06,1158,7000,1976,1,129,,Active,,,http://www.redfin.com/FL/Orlando/4038-Amron-Dr-32822/home/46767471,Stellar MLS,O5823909,N,Y,28.4974283,-81.2737998,32822-3,1511.5,3,32822,1193.1875737850535,318.3124262149465
103,MLS Listing,,Single Family Residential,9802 Lake Georgia Dr,ORLANDO,FL,32817,650000.0,4,2.5,LITTLE LAKE GEORGIA TERRACE,2790,33732,1993,1,233,,Active,,,http://www.redfin.com/FL/Orlando/9802-Lake-Georgia-Dr-32817/home/46721818,Stellar MLS,O5823469,N,Y,28.611552,-81.248506,32817-4,,,,4006.2503199485304,
104,MLS Listing,,Single Family Residential,4300 Arbor Oaks Ct,ORLANDO,FL,32808,258000.0,3,2.0,ROSEMONT SEC 11,2602,12731,1980,1,99,,Active,,,http://www.redfin.com/FL/Orlando/4300-Arbor-Oaks-Ct-32808/home/46712503,Stellar MLS,O5823017,N,Y,28.6031137,-81.4331992,32808-3,1250.0,3,32808,1801.2501269949553,-551.2501269949553
105,MLS Listing,,Townhouse,5478 Rutherford Pl,OVIEDO,FL,32765,230000.0,3,3.5,PROVENANCE,1856,2013,2008,1,124,215,Active,,,http://www.redfin.com/FL/Oviedo/5478-Rutherford-Pl-32765/home/46344906,Stellar MLS,O5823747,N,Y,28.626,-81.24894,32765-3,1795.0,3,32765,1643.7501132125572,151.24988678744285
106,MLS Listing,,Vacant Land,630 Country Club Dr,WINTER PARK,FL,32789,500000.0,,,LAKE KILLARNEY SHORES,,8232,,1,,50,Active,,,http://www.redfin.com/FL/Winter-Park/630-Country-Club-Dr-32789/home/160592687,Stellar MLS,O5824042,N,Y,28.6050673,-81.3709296,32789-nan,,,,3162.500246114254,
107,MLS Listing,,Townhouse,14749 Driftwater Dr,WINTER GARDEN,FL,34787,262500.0,3,2.5,SIGNATURE LAKES PH 3B-6,1620,3125,2015,1,162,298,Active,,,http://www.redfin.com/FL/Winter-Garden/14749-Driftwater-Dr-34787/home/66533952,Stellar MLS,O5823574,N,Y,28.4853486,-81.6040327,34787-3,1900.0,3,34787,1826.5626292099837,73.4373707900163
108,MLS Listing,,Single Family Residential,112 N Crooked Pine Dr,SANFORD,FL,32773,224999.0,3,2.0,HIDDEN LAKE PH 3 UNIT 2,1064,17340,1983,1,211,,Active,,,http://www.redfin.com/FL/Sanford/112-Crooked-Pine-Dr-32773/home/46379058,Stellar MLS,O5824019,N,Y,28.7650569,-81.2913026,32773-3,,,,1615.6194857509224,
109,MLS Listing,,Townhouse,7478 Aloma Pines Ct,WINTER PARK,FL,32792,284900.0,3,3.5,ALOMA TRAILS,1787,2900,2017,1,159,185,Active,,,http://www.redfin.com/FL/Winter-Park/7478-Aloma-Pines-Ct-32792/home/110170353,Stellar MLS,O5824027,N,Y,28.6115736,-81.2842942,32792-3,1700.0,3,32792,1952.562640235902,-252.5626402359021
110,MLS Listing,,Townhouse,203 Arbor Cir,SANFORD,FL,32773,155000.0,2,2.0,THE ARBORS AT HIDDEN LAKE SEC 2,1128,946,1986,1,137,230,Active,,,http://www.redfin.com/FL/Sanford/203-Arbor-Cir-32773/home/46379411,Stellar MLS,T3208780,N,Y,28.761747,-81.296265,32773-2,1250.0,2,32773,1221.875076295419,28.12492370458108
111,MLS Listing,,Condo/Co-op,7296 Daniel Webster Dr #1,WINTER PARK,FL,32792,119900.0,2,2.5,COLONIES PH 03,1230,94859,1981,1,97,292,Active,November-9-2019 12:00 PM,November-9-2019 03:00 PM,http://www.redfin.com/FL/Winter-Park/7296-Daniel-Webster-Dr-32792/unit-1/home/46755854,Stellar MLS,O5823960,N,Y,28.5833465,-81.2898669,32792-2,1401.0,2,32792,1024.4375590181983,376.5624409818017
112,MLS Listing,,Single Family Residential,5002 Figwood Ln,ORLANDO,FL,32808,140000.0,4,2.0,EVANS VILLAGE,1736,6899,1959,1,81,,Active,,,http://www.redfin.com/FL/Orlando/5002-Figwood-Ln-32808/home/46805693,Stellar MLS,S5025977,N,Y,28.5744799,-81.448992,32808-4,,,,1137.5000689119913,
113,MLS Listing,,Single Family Residential,5036 Clarcona Ocoee Rd,ORLANDO,FL,32810,279000.0,4,2.0,PINE HILLS PARK SUB,1432,13506,2020,1,195,,Active,,,http://www.redfin.com/FL/Orlando/5036-Clarcona-Ocoee-Rd-32810/home/46894255,Stellar MLS,O5823191,N,Y,28.6120064,-81.4450173,32810-4,,,,1919.3751373317539,
114,MLS Listing,,Single Family Residential,5818 Oxford Moor Blvd,WINDERMERE,FL,34786,549900.0,6,4.0,OXFORD MOOR 47/30,6325,21999,2004,1,87,150,Active,,,http://www.redfin.com/FL/Windermere/5818-Oxford-Moor-Blvd-34786/home/46960410,Stellar MLS,S5025973,N,Y,28.4816664,-81.5754519,34786-6,,,,3443.187770676457,
115,MLS Listing,,Single Family Residential,6616 Lakeville Rd,ORLANDO,FL,32818,310000.0,3,2.0,WESTWIND,2469,52205,1984,1,126,,Active,,,http://www.redfin.com/FL/Orlando/6616-Lakeville-Rd-32818/home/46860619,Stellar MLS,O5823638,N,Y,28.6296595,-81.4810826,32818-3,1575.0,3,32818,2093.750152590838,-518.7501525908378
116,MLS Listing,,Single Family Residential,677 Seminole Ave,LONGWOOD,FL,32750,195000.0,2,1.5,LAKE WAYMAN HEIGHTS,1080,7050,1973,1,181,,Active,,,http://www.redfin.com/FL/Longwood/677-Seminole-Ave-32750/home/46449490,Stellar MLS,O5823997,N,Y,28.7068363,-81.3352358,32750-2,,,,1446.8750959845593,
117,MLS Listing,,Single Family Residential,129 Burns Ave,LONGWOOD,FL,32750,229900.0,3,2.0,COUNTRY CLUB HEIGHTS UNIT 1,1291,7100,1974,1,178,,Active,,,http://www.redfin.com/FL/Longwood/129-Burns-Ave-32750/home/46413950,Stellar MLS,O5823766,N,Y,28.7315418,-81.3230299,32750-3,,,,1643.187613163334,
118,MLS Listing,,Townhouse,979 Grand Wildmere Cv,LONGWOOD,FL,32750,304690.0,3,2.5,GRAND VIEW AT LAKE WILDMERE,1806,,2019,1,169,260,Active,,,http://www.redfin.com/FL/Longwood/979-Wildmere-Cv-32750/home/169652894,Stellar MLS,O5823996,N,Y,28.69662668,-81.33395372,32750-3,,,,2063.8813999771046,
119,MLS Listing,,Single Family Residential,3829 Lake Pickett Ct,ORLANDO,FL,32820,465000.0,4,3.0,LAKE DRAWDY ESTATES,2145,43548,1987,1,217,,Active,November-9-2019 12:00 PM,November-9-2019 03:00 PM,http://www.redfin.com/FL/Orlando/3829-Lake-Pickett-Ct-32820/home/46742852,Stellar MLS,A4450602,N,Y,28.5965494,-81.1210081,32820-4,,,,2965.625228886257,
120,MLS Listing,,Single Family Residential,506 Jeffrey James Way,APOPKA,FL,32712,270000.0,3,2.0,CLAYTON ESTATES,1873,7767,2012,1,144,51,Active,November-9-2019 11:00 AM,November-9-2019 03:00 PM,http://www.redfin.com/FL/Apopka/506-Jeffrey-James-Way-32712/home/46655576,Stellar MLS,O5823902,N,Y,28.6879651,-81.5240275,32712-3,1600.0,3,32712,1868.7501329016973,-268.75013290169727
121,MLS Listing,,Vacant Land,1329 40th St,ORLANDO,FL,32839,27500.0,,,ANGEBILT ADD,,6749,,1,,,Active,,,http://www.redfin.com/FL/Orlando/1329-40th-St-32839/home/46699804,Stellar MLS,O5823928,N,Y,28.5029582,-81.3982328,32839-nan,,,,504.68751353628403,
122,MLS Listing,,Vacant Land,Lansdowne St Unit 31A,ORLANDO,FL,32833,55000.0,,,CAPE ORLANDO ESTATES,,77972,,1,,4,Active,,,http://www.redfin.com/FL/Wedgefield/Lansdowne-St-32833/unit-31A/home/46694660,Stellar MLS,O5823979,N,Y,28.511548,-81.085745,32833-nan,,,,659.3750270725681,
123,MLS Listing,,Single Family Residential,1881 Windsor Dr,WINTER PARK,FL,32789,435000.0,4,3.0,V H MUSSELWHITES SUB,1600,10369,1953,1,272,,Active,,,http://www.redfin.com/FL/Winter-Park/1881-Windsor-Dr-32789/home/46712992,Stellar MLS,O5820191,N,Y,28.605568,-81.3283165,32789-4,,,,2796.875214119401,
124,MLS Listing,,Single Family Residential,1782 Laurel Brook Loop,CASSELBERRY,FL,32707,320000.0,4,2.0,OAKHURST RESERVE UNIT ONE,1959,,2003,1,163,85,Active,,,http://www.redfin.com/FL/Casselberry/1782-Laurel-Brook-Loop-32707/home/46324606,Stellar MLS,O5823949,N,Y,28.6517335,-81.2980103,32707-4,,,,2150.0001575131228,
125,MLS Listing,,Townhouse,1321 Pine Oak Trl,SANFORD,FL,32773,179999.0,3,2.5,MAGNOLIA CLUB,1624,1247,2007,1,111,200,Active,,,http://www.redfin.com/FL/Sanford/1321-Pine-Oak-Trl-32773/home/46330904,Stellar MLS,O5823954,N,Y,28.756034,-81.257541,32773-3,,,,1362.4944636006396,
126,MLS Listing,,Single Family Residential,261 Spring Ln,WINTER PARK,FL,32789,829000.0,7,5.0,THE RIPPLES ADD,3788,12183,2007,1,219,,Active,November-9-2019 11:00 AM,November-9-2019 02:00 PM,http://www.redfin.com/FL/Winter-Park/261-Spring-Ln-32789/home/46807823,Stellar MLS,O5823549,N,Y,28.5733933,-81.3464515,32789-7,,,,5013.125408057434,
127,MLS Listing,,Single Family Residential,1861 Windsor Dr,WINTER PARK,FL,32789,450000.0,4,3.0,V H MUSSELWHITES SUB,2000,10451,1953,1,225,,Active,,,http://www.redfin.com/FL/Winter-Park/1861-Windsor-Dr-32789/home/46712991,Stellar MLS,O5820194,N,Y,28.6055273,-81.3285636,32789-4,,,,2881.250221502829,
128,MLS Listing,,Single Family Residential,5256 Gold Tree Ct,ORLANDO,FL,32808,99500.0,3,2.0,ROSEMONT SEC 13,1232,7765,1983,1,81,,Active,,,http://www.redfin.com/FL/Orlando/5256-Gold-Tree-Ct-32808/home/46712224,Stellar MLS,R4902475,N,Y,28.607029,-81.441269,32808-3,1250.0,3,32808,909.6875489767366,340.3124510232634
129,MLS Listing,,Single Family Residential,18325 Bellezza Dr,ORLANDO,FL,32820,534900.0,4,5.0,FONTANA ESTATES,4137,22573,2013,1,129,145,Active,,,http://www.redfin.com/FL/Orlando/18325-Bellezza-Dr-32820/home/46672894,Stellar MLS,O5823952,N,Y,28.5897512,-81.1049323,32820-4,,,,3358.812763293029,
130,MLS Listing,,Single Family Residential,2141 Winter Park Rd,WINTER PARK,FL,32789,435000.0,4,3.0,CHARMONT,1800,9110,1950,1,242,,Active,,,http://www.redfin.com/FL/Winter-Park/2141-Winter-Park-Rd-32789/home/46726583,Stellar MLS,O5820195,N,Y,28.5771534,-81.3465374,32789-4,,,,2796.875214119401,
131,MLS Listing,,Condo/Co-op,4816 Marks Ter Unit 384B1,ORLANDO,FL,32811,145900.0,2,2.0,TOWNES SOUTHGATE CONDO TOWNE 07,860,5386,1984,1,170,300,Active,,,http://www.redfin.com/FL/Orlando/4816-Marks-Ter-32811/unit-384B1/home/46736869,Stellar MLS,O5823939,N,Y,28.49674,-81.44358,32811-2,1320.0,2,32811,1170.6875718161393,149.31242818386067
132,MLS Listing,,Single Family Residential,1791 Goodrich Ave,WINTER PARK,FL,32789,445000.0,4,3.0,SYLVAN HEIGHTS,1779,9299,1951,1,250,,Active,,,http://www.redfin.com/FL/Winter-Park/1791-Goodrich-Ave-32789/home/46713303,Stellar MLS,O5820196,N,Y,28.5991489,-81.3297778,32789-4,,,,2853.1252190416867,
133,MLS Listing,,Single Family Residential,3232 Young St,WINTER PARK,FL,32792,345000.0,3,2.0,WINTER PARK FOREST,2290,8274,1968,1,151,,Active,,,http://www.redfin.com/FL/Winter-Park/3232-Young-St-32792/home/46697786,Stellar MLS,S5025961,N,Y,28.6082829,-81.3047389,32792-3,1700.0,3,32792,2290.6251698188353,-590.6251698188353
134,MLS Listing,,Single Family Residential,3126 Cambria Ct,Orlando,FL,32825,295000.0,4,2.0,Andover Lakes PH 1 A,1857,11998,1995,1,159,29,Active,,,http://www.redfin.com/FL/Orlando/3126-Cambria-Ct-32825/home/46738562,Beaches MLS,RX-10575580,N,Y,28.5060486,-81.2285835,32825-4,,,,2009.37514520741,
135,MLS Listing,,Townhouse,30 N Park Ave #9,WINTER GARDEN,FL,34787,1018600.0,4,4.0,30 N. PARK,3832,890,2020,1,266,200,Active,,,http://www.redfin.com/FL/WINTER-GARDEN/30-N-Park-AVE-34787/unit-9/home/169651983,Stellar MLS,O5823843,N,Y,28.564752,-81.592416,34787-4,2275.0,4,34787,6079.625501383958,-3804.625501383958
136,MLS Listing,,Single Family Residential,326 S Observatory Dr,ORLANDO,FL,32835,83900.0,2,1.0,ORLA VISTA HEIGHTS,916,7007,1954,1,92,,Active,,,http://www.redfin.com/FL/Orlando/326-S-Observatory-Dr-32835/home/46931570,Stellar MLS,R4902473,N,Y,28.5370958,-81.4682566,32835-2,1450.0,2,32835,821.9375412979717,628.0624587020283
137,MLS Listing,,Condo/Co-op,200 Maitland Ave #95,ALTAMONTE SPRINGS,FL,32701,99900.0,1,1.0,CAPISTRANO,836,461,1970,1,119,297,Active,,,http://www.redfin.com/FL/Altamonte-Springs/200-Maitland-Ave-32701/unit-95/home/46386067,Stellar MLS,O5823823,N,Y,28.6599646,-81.3678075,32701-1,1077.5,1,32701,911.937549173628,165.56245082637201
138,MLS Listing,,Single Family Residential,4825 Figwood Ln,ORLANDO,FL,32808,192000.0,4,2.0,SYLVAN HYLANDS,1671,9583,1960,1,115,,Active,,,http://www.redfin.com/FL/Orlando/4825-Figwood-Ln-32808/home/46806677,Stellar MLS,O5823741,N,Y,28.575153,-81.4463959,32808-4,,,,1430.0000945078737,
139,MLS Listing,,Single Family Residential,4591 Saint Brides Ct,ORLANDO,FL,32812,289900.0,4,2.0,BRYN MAWR SOUTH,1698,11520,1982,1,171,,Active,,,http://www.redfin.com/FL/Orlando/4591-St-Brides-Ct-32812/home/46737237,Stellar MLS,O5823236,N,Y,28.509331,-81.3288322,32812-4,,,,1980.6876426970446,
140,MLS Listing,,Single Family Residential,8757 Claiborne Ct,ORLANDO,FL,32825,227000.0,3,2.0,VALENCIA WOODS SECOND ADD,1471,3990,1996,1,154,,Active,,,http://www.redfin.com/FL/Orlando/8757-Claiborne-Ct-32825/home/46856953,Stellar MLS,O5823935,N,Y,28.5507779,-81.264079,32825-3,1605.0,3,32825,1626.8751117358715,-21.875111735871542
141,MLS Listing,,Single Family Residential,202 Squirrel Trl,LONGWOOD,FL,32779,489900.0,4,2.5,SWEETWATER OAKS SEC 05,2911,28568,1975,1,168,41,Active,November-10-2019 01:00 PM,November-10-2019 04:00 PM,http://www.redfin.com/FL/Longwood/202-Squirrel-Trl-32779/home/46448111,Stellar MLS,O5823734,N,Y,28.7049471,-81.4259883,32779-4,,,,3105.6877411427467,
142,MLS Listing,,Single Family Residential,2948 Willow Bend Blvd,ORLANDO,FL,32808,189900.0,3,2.0,WILLOWS SEC 02,1111,7101,1979,1,171,,Active,,,http://www.redfin.com/FL/Orlando/2948-Willow-Bend-Blvd-32808/home/46807534,Stellar MLS,O5823667,N,Y,28.5821607,-81.4466748,32808-3,1250.0,3,32808,1418.1875934741938,-168.18759347419382
143,MLS Listing,,Single Family Residential,16905 Broadwater Ave,WINTER GARDEN,FL,34787,1274990.0,6,4.5,WATERSIDE 90'S,4474,20161,2019,1,285,239,Active,,,http://www.redfin.com/FL/Winter-Garden/16905-Broadwater-Ave-34787/home/64115175,Stellar MLS,T3208709,N,Y,28.5162186,-81.6401863,34787-6,,,,7521.8193775864265,
144,MLS Listing,,Single Family Residential,1044 Hampshire Ct,WINTER PARK,FL,32792,259995.0,3,2.0,HOWELL ESTATES 1ST ADD,1366,13939,1984,1,190,25,Active,,,http://www.redfin.com/FL/Winter-Park/1044-Hampshire-Ct-32792/home/46434707,Stellar MLS,O5823803,N,Y,28.63368,-81.2876261,32792-3,1700.0,3,32792,1812.472002976951,-112.47200297695099
145,MLS Listing,,Single Family Residential,241 Carolyn Dr,OVIEDO,FL,32765,795000.0,4,3.5,,3254,56355,1997,1,244,,Active,November-10-2019 01:00 PM,November-10-2019 04:00 PM,http://www.redfin.com/FL/Oviedo/241-Carolyn-Dr-32765/home/46390528,Stellar MLS,O5822049,N,Y,28.6670764,-81.1881203,32765-4,,,,4821.875391321664,
146,MLS Listing,,Single Family Residential,15031 Evergreen Oak Loop,WINTER GARDEN,FL,34787,335000.0,4,3.5,"SIGNATURE LAKES PH 3B-4, 3B-5 &",2506,3966,2016,1,134,174,Active,,,http://www.redfin.com/FL/Winter-Garden/15031-Evergreen-Oak-Loop-34787/home/102833986,Stellar MLS,O5823740,N,Y,28.4842853,-81.6078526,34787-4,2275.0,4,34787,2234.3751648965504,40.62483510344964
147,MLS Listing,,Condo/Co-op,2668 Robert Trent Jones Dr #420,ORLANDO,FL,32835,132000.0,2,2.0,MADISON AT METROWEST CONDOMINIUM,1150,11266,1995,1,115,345,Active,,,http://www.redfin.com/FL/Orlando/2668-Robert-Trent-Jones-Dr-32835/unit-420/home/46628823,Stellar MLS,O5823475,N,Y,28.5135594,-81.4716808,32835-2,1450.0,2,32835,1092.500064974163,357.499935025837
148,MLS Listing,,Single Family Residential,16767 Broadwater Ave,WINTER GARDEN,FL,34787,1548203.0,6,4.5,WATERSIDE 90'S,4474,20187,2019,1,346,239,Active,,,http://www.redfin.com/FL/Winter-Garden/16767-Broadwater-Ave-34787/home/64115205,Stellar MLS,T3208695,N,Y,28.5200065,-81.6357253,34787-6,,,,9058.642637069655,
149,MLS Listing,,Condo/Co-op,1954 Conway Rd #15,ORLANDO,FL,32812,78000.0,1,1.0,METRO AT MICHIGAN PARK CONDO,825,516,1970,1,95,229,Active,,,http://www.redfin.com/FL/Orlando/1954-S-Conway-Rd-32812/unit-15/home/169651201,Stellar MLS,O5822576,N,Y,28.5189748,-81.3313894,32812-1,1089.0,1,32812,788.7500383938236,300.2499616061764
150,MLS Listing,,Single Family Residential,633 Green Meadow Ave,MAITLAND,FL,32751,389000.0,3,2.0,FOREST BROOK 3RD SEC,1878,10080,1970,1,207,,Active,November-10-2019 01:00 PM,November-10-2019 04:00 PM,http://www.redfin.com/FL/Maitland/633-Green-Meadow-Ave-32751/home/46438775,Stellar MLS,O5823812,N,Y,28.6337781,-81.3267692,32751-3,2014.0,3,32751,2538.1251914768895,-524.1251914768895
151,MLS Listing,,Single Family Residential,7534 Park Springs Cir,ORLANDO,FL,32835,549000.0,4,3.5,PARK SPGS,3465,14535,1991,1,158,198,Active,,,http://www.redfin.com/FL/Orlando/7534-Park-Springs-Cir-32835/home/46756858,Stellar MLS,O5823642,N,Y,28.4989665,-81.4856077,32835-4,,,,3438.1252702334514,
152,MLS Listing,,Single Family Residential,1101 W New Hampshire St,ORLANDO,FL,32804,974000.0,5,5.5,COLLEGE PARK SECOND ADD,4152,10185,2015,1,235,,Active,,,http://www.redfin.com/FL/Orlando/1101-W-New-Hampshire-St-32804/home/46777961,Stellar MLS,O5823568,N,Y,28.5676572,-81.394862,32804-5,,,,5828.750479430568,
153,MLS Listing,,Single Family Residential,21 S Cortez Ave,WINTER SPRINGS,FL,32708,234900.0,4,2.0,NORTH ORLANDO 2ND ADD,1544,10386,1960,1,152,,Active,,,http://www.redfin.com/FL/Winter-Springs/21-S-Cortez-Ave-32708/home/46355221,Stellar MLS,O5823869,N,Y,28.6974335,-81.3100805,32708-4,,,,1671.3126156244766,
154,MLS Listing,,Single Family Residential,5941 Swoffield Dr,ORLANDO,FL,32812,214900.0,3,1.5,CONWAY ACRES FIRST ADD,912,9916,1962,1,236,,Active,,,http://www.redfin.com/FL/Orlando/5941-Swoffield-Dr-32812/home/46795783,Stellar MLS,O5823848,N,Y,28.4813516,-81.3118645,32812-3,,,,1558.8126057799063,
155,MLS Listing,,Single Family Residential,1241 Spring Lake Dr,ORLANDO,FL,32804,1687500.0,5,4.5,SPRING LAKE TERRACE,4984,24611,1936,1,339,45,Active,,,http://www.redfin.com/FL/Orlando/1241-Spring-Lake-Dr-32804/home/46831452,Stellar MLS,O5823718,N,Y,28.5552719,-81.3971808,32804-5,,,,9842.188330635607,
156,MLS Listing,,Single Family Residential,1002 Wyoming Ct,OCOEE,FL,34761,190000.0,4,2.0,MICHELE WOODS,1428,7219,1982,1,133,,Active,,,http://www.redfin.com/FL/Ocoee/1002-Wyoming-Ct-34761/home/46740164,Stellar MLS,G5022581,N,Y,28.5918245,-81.5255065,34761-4,,,,1418.7500935234166,
157,MLS Listing,,Townhouse,2273 Brookridge Trl,SANFORD,FL,32773,250000.0,3,2.5,RESERVE AT LOCH LAKE,1713,2696,2013,1,146,209,Active,,,http://www.redfin.com/FL/Sanford/2273-Brookridge-Trl-32773/home/46346165,Stellar MLS,O5823067,N,Y,28.763398,-81.299864,32773-3,,,,1756.250123057127,
158,MLS Listing,,Single Family Residential,35 Zachary Wade St,WINTER GARDEN,FL,34787,340000.0,3,2.5,LAKEVIEW RESERVE 46/149,2356,12827,2001,1,144,61,Active,,,http://www.redfin.com/FL/Winter-Garden/35-Zachary-Wade-St-34787/home/46960496,Stellar MLS,O5823789,N,Y,28.5620626,-81.6063967,34787-3,1900.0,3,34787,2262.500167357693,-362.50016735769304
159,MLS Listing,,Single Family Residential,10335 Groton St,ORLANDO,FL,32817,189000.0,3,1.0,ROYAL ESTATES,1150,6677,1960,1,164,,Active,,,http://www.redfin.com/FL/Orlando/10335-Groton-St-32817/home/46802240,Stellar MLS,O5823870,N,Y,28.5762812,-81.2366736,32817-3,1525.0,3,32817,1413.125093031188,111.87490696881196
160,MLS Listing,,Condo/Co-op,5445 Lake Margaret Dr Unit G,ORLANDO,FL,32812,174900.0,2,2.0,MANORS BRYN MAWR CONDO PH 03,919,22163,1987,1,190,260,Active,,,http://www.redfin.com/FL/Orlando/5445-Lake-Margaret-Dr-32812/unit-G/home/169650544,Stellar MLS,T3208649,N,Y,28.5083525,-81.3153142,32812-2,1283.0,2,32812,1333.8125860907662,-50.81258609076622
161,MLS Listing,,Single Family Residential,5436 Britan Dr,ORLANDO,FL,32808,199800.0,4,2.0,REGENCY PARK,1194,7558,1987,1,167,,Active,,,http://www.redfin.com/FL/Orlando/5436-Britan-Dr-32808/home/46681420,Stellar MLS,O5823750,N,Y,28.6074562,-81.4618213,32808-4,,,,1473.875098347256,
162,MLS Listing,,Single Family Residential,1104 Covington St,OVIEDO,FL,32765,229500.0,3,2.0,ALAFAYA WOODS PH 04,1396,5501,1986,1,164,14,Active,,,http://www.redfin.com/FL/Oviedo/1104-Covington-St-32765/home/46423683,Stellar MLS,O5822422,N,Y,28.6492125,-81.1914356,32765-3,1795.0,3,32765,1640.9376129664429,154.06238703355712
163,MLS Listing,,Single Family Residential,2813 Casa Aloma Way,WINTER PARK,FL,32792,268999.0,3,2.0,CASA ALOMA,1650,9600,1969,1,163,,Active,,,http://www.redfin.com/FL/Winter-Park/2813-Casa-Aloma-Way-32792/home/46453559,Stellar MLS,O5823801,N,Y,28.6140225,-81.3120687,32792-3,1700.0,3,32792,1863.1195074089765,-163.11950740897646
164,MLS Listing,,Vacant Land,Trigonia St,ORLANDO,FL,32828,19900.0,,,EAST PINE ACRES,,14793,,1,,,Active,,,http://www.redfin.com/FL/Unknown/Trigonia-St-32828/home/108115170,Stellar MLS,O5823846,N,Y,28.549257,-81.146081,32828-nan,,,,461.9375097953473,
165,MLS Listing,,Single Family Residential,3230 Rider Pl,ORLANDO,FL,32817,289000.0,4,2.0,UNIVERSITY WOODS PH 02,1845,9989,1986,1,157,10,Active,,,http://www.redfin.com/FL/Orlando/3230-Rider-Pl-32817/home/46737156,Stellar MLS,T3207630,N,Y,28.5940182,-81.2361142,32817-4,,,,1975.625142254039,
166,MLS Listing,,Single Family Residential,3690 Chalet Ct #3,ORLANDO,FL,32818,209000.0,4,2.0,BREEZEWOOD,1989,7499,1973,1,105,,Active,,,http://www.redfin.com/FL/Orlando/3690-Chalet-Ct-32818/unit-3/home/46761443,Stellar MLS,O5823814,N,Y,28.5925147,-81.47023,32818-4,,,,1525.6251028757586,
167,MLS Listing,,Single Family Residential,4123 Tunitas Ct,ORLANDO,FL,32817,179999.0,2,2.0,SUNCREST VILLAS PH 01,1014,3630,1994,1,178,70,Active,,,http://www.redfin.com/FL/Orlando/4123-Tunitas-Ct-32817/home/46714537,Stellar MLS,O5823778,N,Y,28.6001317,-81.2390402,32817-2,1349.0,2,32817,1362.4944636006396,-13.49446360063962
168,MLS Listing,,Single Family Residential,10033 Rivers Trail Dr,ORLANDO,FL,32817,299900.0,4,2.5,RIVERWALK,2563,5824,2000,1,117,27,Active,,,http://www.redfin.com/FL/Orlando/10033-Rivers-Trail-Dr-32817/home/46802423,Stellar MLS,O5823829,N,Y,28.581985,-81.2430418,32817-4,,,,2036.93764761933,
169,MLS Listing,,Single Family Residential,1166 Grand Hilltop Dr,APOPKA,FL,32703,375000.0,3,2.5,HILLTOP RESERVE PH 1,2207,6343,2015,1,170,168,Active,,,http://www.redfin.com/FL/Apopka/1166-Grand-Hilltop-Dr-32703/home/107963698,Stellar MLS,O5823116,N,Y,28.6476011,-81.5254636,32703-3,1600.0,3,32703,2459.3751845856905,-859.3751845856905
170,MLS Listing,,Single Family Residential,1766 Alaqua Dr,LONGWOOD,FL,32779,1550000.0,4,5.5,ALAQUA PH 1,5867,44631,2009,1,264,266,Active,,,http://www.redfin.com/FL/Longwood/1766-Alaqua-Dr-32779/home/46388372,Stellar MLS,O5823806,N,Y,28.7452482,-81.3849204,32779-4,,,,9068.750762954187,
171,MLS Listing,,Single Family Residential,3741 Brandy St,ORLANDO,FL,32812,279900.0,2,2.0,WEDGEWOOD GROVES,1231,7081,1990,1,227,36,Active,,,http://www.redfin.com/FL/Orlando/3741-Brandy-St-32812/unit-3/home/46718363,Stellar MLS,O5823810,N,Y,28.5183235,-81.3371267,32812-2,1283.0,2,32812,1924.4376377747597,-641.4376377747597
172,MLS Listing,,Single Family Residential,223 Tanglewilde St,APOPKA,FL,32712,299900.0,4,2.0,APOPKA RURAL,1588,47661,1986,1,189,,Active,,,http://www.redfin.com/FL/Apopka/223-Tanglewilde-St-32712/home/169651767,Stellar MLS,O5822722,N,Y,28.6917273,-81.5062468,32712-4,1962.5,4,32712,2036.93764761933,-74.43764761932994
173,MLS Listing,,Single Family Residential,3500 Leprechaun Way,ORLANDO,FL,32808,199500.0,4,2.5,LONDONDERRY HILLS SEC 02,1750,9867,1972,1,114,,Active,,,http://www.redfin.com/FL/Orlando/3500-Leprechaun-Way-32808/home/46724900,Stellar MLS,O5823761,N,Y,28.5859748,-81.4447437,32808-4,,,,1472.1875981995872,
174,MLS Listing,,Single Family Residential,389 N Spaulding Cv,HEATHROW,FL,32746,749000.0,5,6.5,HEATHROW,5237,59356,1985,1,143,250,Active,,,http://www.redfin.com/FL/Lake-Mary/389-N-Spaulding-Cv-32746/home/46381881,Stellar MLS,O5823070,N,Y,28.7673508,-81.375815,32746-5,,,,4563.125368679153,
175,MLS Listing,,Condo/Co-op,1511 S Pine Ridge Cir Unit A1,SANFORD,FL,32773,95000.0,2,2.0,PINE RIDGE CLUB VILLAGE 1 PH 12 BLDG 15,1025,641,1985,1,93,317,Active,,,http://www.redfin.com/FL/Sanford/1511-S-Pine-Ridge-Cir-32773/unit-A1/home/169649577,Stellar MLS,O5823527,N,Y,28.782009,-81.296329,32773-2,1250.0,2,32773,884.3750467617083,365.6249532382917
176,MLS Listing,,Condo/Co-op,4658 Commander Dr #834,ORLANDO,FL,32822,105000.0,2,1.0,VENETIAN PLACE,934,8678,1990,1,112,317,Active,,,http://www.redfin.com/FL/Orlando/4658-Commander-Dr-32822/unit-834/home/169649518,Stellar MLS,O5823802,N,Y,28.4960782,-81.3066735,32822-2,1350.0,2,32822,940.6250516839934,409.37494831600657
177,MLS Listing,,Vacant Land,Woodsmere,ORLANDO,FL,32839,64995.0,,,ORLANDO,,9000,,1,,,Active,,,http://www.redfin.com/FL/Orlando/Woodsmere-Ave-32839/home/169649502,Stellar MLS,O5819363,N,Y,28.4823215,-81.39297829,32839-nan,,,,715.596906992392,
178,MLS Listing,,Single Family Residential,1107 Woodsmere Ave,ORLANDO,FL,32839,229987.0,4,2.0,LAKE JESSAMINE SHORES,1491,8995,1952,1,154,,Active,,,http://www.redfin.com/FL/Orlando/1107-Woodsmere-Ave-32839/home/46782920,Stellar MLS,O5820257,N,Y,28.482353,-81.3927149,32839-4,,,,1643.676988206158,
179,MLS Listing,,Single Family Residential,1907 Turtle Creek Pl,ORLANDO,FL,32825,350000.0,3,2.0,CYPRESS SPGS TR 215 PH 02,2102,12066,1992,1,167,51,Active,,,http://www.redfin.com/FL/Orlando/1907-Turtle-Creek-Pl-32825/home/46710467,Stellar MLS,O5821018,N,Y,28.5169098,-81.2258292,32825-3,1605.0,3,32825,2318.750172279978,-713.750172279978
180,MLS Listing,,Condo/Co-op,652 Grenadine Ct #652,WINTER PARK,FL,32792,143900.0,2,2.0,WINTER PARK VILLAS CONDO,1037,,1981,2,139,359,Active,,,http://www.redfin.com/FL/Winter-Park/652-Grenadine-Ct-32792/unit-652/home/46640159,Stellar MLS,O5823618,N,Y,28.58882,-81.304612,32792-2,1401.0,2,32792,1159.4375708316825,241.56242916831752
181,MLS Listing,,Single Family Residential,8410 Lowman Ave,ORLANDO,FL,32818,349000.0,3,2.0,WOODSMERE MANOR FIRST ADD,2271,39905,1994,2,154,,Active,,,http://www.redfin.com/FL/Orlando/8410-Lowman-Ave-32818/home/46746653,Stellar MLS,P4908381,N,Y,28.584518,-81.4991812,32818-3,1575.0,3,32818,2313.1251717877494,-738.1251717877494
182,MLS Listing,,Townhouse,208 Park Lake St #15,ORLANDO,FL,32803,532900.0,3,3.5,IRVING ON PARK,1904,1479,2020,2,280,311,Active,,,http://www.redfin.com/FL/Orlando/208-Park-Lake-St-32803/unit-15/home/169649151,Stellar MLS,O5821294,N,Y,28.554695,-81.374703,32803-3,2042.5,3,32803,3347.5627623085725,-1305.0627623085725
183,MLS Listing,,Vacant Land,200 Park Lake St,ORLANDO,FL,32803,249900.0,,,FERGUSON JOHN MAXWELL SUB,,5623,,2,,,Active,,,http://www.redfin.com/FL/Orlando/200-Park-Lake-St-32803/home/169649148,Stellar MLS,O5823434,N,Y,28.554693,-81.375023,32803-nan,,,,1755.6876230079042,
184,MLS Listing,,Single Family Residential,332 Placid Lake Dr,SANFORD,FL,32773,176000.0,3,2.0,PLACID WOODS PH 1,1052,3912,1997,2,167,24,Active,,,http://www.redfin.com/FL/Sanford/332-Placid-Lake-Dr-32773/home/46351168,Stellar MLS,O5823712,N,Y,28.7814616,-81.2913886,32773-3,,,,1340.0000866322177,
185,MLS Listing,,Single Family Residential,2311 Kingscrest Cir,APOPKA,FL,32712,265900.0,4,2.0,EMERALD COVE PH 02,2015,10029,2005,2,132,52,Active,,,http://www.redfin.com/FL/Apopka/2311-Kingscrest-Cir-32712/home/46593653,Stellar MLS,T3208456,N,Y,28.7097302,-81.5441086,32712-4,1962.5,4,32712,1845.6876308835604,116.81236911643964
186,MLS Listing,,Single Family Residential,240 Ivy Farm Ln,CASSELBERRY,FL,32707,255000.0,3,2.0,CARRIAGE HILL UNIT 3,1587,9630,1969,2,161,25,Active,,,http://www.redfin.com/FL/Casselberry/240-Ivy-Farm-Ln-32707/home/46400671,Stellar MLS,O5823781,N,Y,28.6628493,-81.3306158,32707-3,1694.0,3,32707,1784.3751255182697,-90.37512551826967
187,MLS Listing,,Single Family Residential,3931 Greenview Pines Ct,ORLANDO,FL,32817,325000.0,5,3.0,GREENVIEW PINES,2332,9058,1986,2,139,,Active,,,http://www.redfin.com/FL/Orlando/3931-Greenview-Pines-Ct-32817/home/46727885,Stellar MLS,O5823694,N,Y,28.5962603,-81.2581857,32817-5,,,,2178.1251599742654,
188,MLS Listing,,Single Family Residential,6109 N Hudson St,ORLANDO,FL,32808,170000.0,3,2.0,ROBINSWOOD SEC 03,1484,9178,1958,2,115,,Active,,,http://www.redfin.com/FL/Orlando/6109-N-Hudson-St-32808/home/46846086,Stellar MLS,O5823732,N,Y,28.5631155,-81.4646529,32808-3,1250.0,3,32808,1306.2500836788465,-56.25008367884652
189,MLS Listing,,Condo/Co-op,3584 Wilshire Way Rd #247,ORLANDO,FL,32829,164900.0,2,2.5,VICTORIA PINES CONDO,1071,460,2005,2,154,281,Active,,,http://www.redfin.com/FL/Orlando/3584-Wilshire-Way-Rd-32829/unit-247/home/46621676,Stellar MLS,O5823715,N,Y,28.4973126,-81.234827,32829-2,1485.0,2,32829,1277.562581168481,207.43741883151893
190,MLS Listing,,Single Family Residential,6608 Edgewater Dr,ORLANDO,FL,32810,140000.0,3,2.0,PALM HEIGHTS,2234,8399,1955,2,63,,Active,,,http://www.redfin.com/FL/Orlando/6608-Edgewater-Dr-32810/home/46901889,Stellar MLS,O5823432,N,Y,28.6171982,-81.4298942,32810-3,1500.0,3,32810,1137.5000689119913,362.4999310880087
191,MLS Listing,,Townhouse,9213 Shepton St,ORLANDO,FL,32825,224900.0,3,2.5,SOMERSET CHASE,1372,1728,2013,2,164,153,Active,,,http://www.redfin.com/FL/Orlando/9213-Shepton-St-32825/home/46664255,Stellar MLS,T3208483,N,Y,28.5500011,-81.2557229,32825-3,1605.0,3,32825,1615.0626107021917,-10.062610702191705
192,MLS Listing,,Single Family Residential,1819 Bent Oak Ct,APOPKA,FL,32712,305000.0,4,2.0,BENT OAK PH 02,2591,14909,1982,2,118,33,Active,,,http://www.redfin.com/FL/Apopka/1819-Bent-Oak-Ct-32712/home/46679447,Stellar MLS,V4910528,N,Y,28.6847098,-81.47482,32712-4,1962.5,4,32712,2065.6251501296947,-103.1251501296947
193,MLS Listing,,Single Family Residential,11102 Cypress Leaf Dr,ORLANDO,FL,32825,242000.0,3,2.0,STURBRIDGE,1230,7023,1992,2,197,35,Active,,,http://www.redfin.com/FL/Orlando/11102-Cypress-Leaf-Dr-32825/home/46825131,Stellar MLS,O5823665,N,Y,28.5614314,-81.2182975,32825-3,1605.0,3,32825,1711.2501191192991,-106.25011911929914
194,MLS Listing,,Single Family Residential,14904 Ellingsworth Ln,WINTER GARDEN,FL,34787,453321.0,4,3.0,OXFORD CHASE,2779,8353,2019,2,163,184,Active,,,http://www.redfin.com/FL/Winter-Garden/14904-Ellingsworth-Ln-34787/home/144576325,Stellar MLS,O5823757,N,Y,28.537341,-81.607629,34787-4,2275.0,4,34787,2899.9308481375197,-624.9308481375197
195,MLS Listing,,Condo/Co-op,326 Scottsdale Sq #326,WINTER PARK,FL,32792,92500.0,2,1.5,WINTER PARK WOODS CONDO,1085,,1974,2,85,289,Active,,,http://www.redfin.com/FL/Winter-Park/326-Scottsdale-Sq-32792/unit-326/home/113251927,Stellar MLS,S5025916,N,Y,28.587979,-81.306282,32792-2,1401.0,2,32792,870.3125455311371,530.6874544688629
196,MLS Listing,,Single Family Residential,143 Sandpiper Ridge Dr,ORLANDO,FL,32835,187000.0,3,2.0,WESTMOOR PH 04A,1250,14689,1986,2,150,13,Active,,,http://www.redfin.com/FL/Orlando/143-Sandpiper-Ridge-Dr-32835/home/46862176,Stellar MLS,O5823678,N,Y,28.5423958,-81.4906471,32835-3,1695.0,3,32835,1401.875092046731,293.12490795326903
197,MLS Listing,,Single Family Residential,1056 W Pebble Beach Cir,WINTER SPRINGS,FL,32708,279900.0,3,2.0,COUNTRY CLUB VILLAGE UNIT 1,1804,6052,1979,2,155,94,Active,November-10-2019 11:00 AM,November-10-2019 02:00 PM,http://www.redfin.com/FL/Winter-Springs/1056-W-Pebble-Beach-Cir-32708/home/46365657,Stellar MLS,O5823639,N,Y,28.6735854,-81.2576695,32708-3,1640.0,3,32708,1924.4376377747597,-284.43763777475965
198,MLS Listing,,Condo/Co-op,2777 L B Mcleod Rd Unit C,ORLANDO,FL,32805,64900.0,2,1.5,CATALINA ISLES CONDO,992,3974,1973,2,65,241,Active,,,http://www.redfin.com/FL/Orlando/2777-L-B-McLeod-Rd-32805/unit-C/home/144038642,Stellar MLS,O5823744,N,Y,28.5113533,-81.4121671,32805-2,,,,715.0625319456302,
199,MLS Listing,,Single Family Residential,14884 Winkfield Ct,WINTER GARDEN,FL,34787,470471.0,4,3.0,OXFORD CHASE,3111,7963,2019,2,151,184,Active,,,http://www.redfin.com/FL/Winter-Garden/Winkfield-Ct-34787/home/144576307,Stellar MLS,O5823730,N,Y,28.539,-81.606892,34787-4,2275.0,4,34787,2996.399606579239,-721.3996065792389
200,MLS Listing,,Single Family Residential,11492 Fangorn Rd,ORLANDO,FL,32825,499900.0,3,2.5,THE E 1/4,2664,75359,1979,2,188,,Active,,,http://www.redfin.com/FL/Orlando/11492-Fangorn-Rd-32825/home/46824649,Stellar MLS,O5823230,N,Y,28.5554657,-81.2133154,32825-3,1605.0,3,32825,3161.9377460650317,-1556.9377460650317
201,MLS Listing,,Condo/Co-op,4716 Walden Cir #34,ORLANDO,FL,32811,69000.0,1,1.0,WALDEN PALMS CONDO,760,6898,1988,2,91,540,Active,,,http://www.redfin.com/FL/Orlando/4716-Walden-Cir-32811/unit-34/home/46619366,Stellar MLS,O5821153,N,Y,28.4910253,-81.4430896,32811-1,1061.0,1,32811,738.1250339637671,322.8749660362329
202,MLS Listing,,Single Family Residential,3438 Fairway Ln,ORLANDO,FL,32804,499000.0,3,2.5,BARNES MINOR SUB,2000,4000,1925,2,250,,Active,,,http://www.redfin.com/FL/Orlando/3438-Fairway-Ln-32804/home/144578905,Stellar MLS,O5823737,N,Y,28.5837022,-81.390353,32804-3,1899.0,3,32804,3156.875245622026,-1257.875245622026
203,MLS Listing,,Townhouse,672 Pensacola Ln,LAKE MARY,FL,32746,287900.0,4,3.0,TIMACUAN PARK,2278,1290,2007,2,126,210,Active,,,http://www.redfin.com/FL/Lake-Mary/672-Pensacola-Ln-32746/home/46342540,Stellar MLS,O5823460,N,Y,28.781795,-81.344317,32746-4,2245.0,4,32746,1969.4376417125875,275.5623582874125
204,MLS Listing,,Multi-Family (2-4 Unit),1400 Altaloma Ave,ORLANDO,FL,32803,269900.0,,,MAYFAIR SUB,1298,4558,1966,2,208,,Active,,,http://www.redfin.com/FL/Orlando/1400-Altaloma-Ave-32803/home/46813798,Stellar MLS,O5820531,N,Y,28.5641982,-81.3597277,32803-nan,,,,1868.1876328524745,
205,MLS Listing,,Single Family Residential,644 Oxford Chase Dr,WINTER GARDEN,FL,34787,476125.0,4,3.0,OXFORD CHASE,3114,8735,2018,2,153,177,Active,,,http://www.redfin.com/FL/Winter-Garden/Oxford-Chase-Dr-34787/home/144576335,Stellar MLS,O5823725,N,Y,28.535365,-81.606119,34787-4,2275.0,4,34787,3028.2033593622987,-753.2033593622987
206,MLS Listing,,Single Family Residential,14914 Hartford Run Dr,ORLANDO,FL,32828,333000.0,3,2.5,STONEYBROOK,2174,6136,1999,2,153,162,Active,,,http://www.redfin.com/FL/Orlando/14914-Hartford-Run-Dr-32828/unit-4/home/46687118,Stellar MLS,O5823524,N,Y,28.5238689,-81.1623678,32828-3,1710.0,3,32828,2223.1251639120933,-513.1251639120933
207,MLS Listing,,Single Family Residential,2191 Alclobe Cir #2,OCOEE,FL,34761,250000.0,3,2.0,SILVER BEND,1721,9413,1995,2,145,18,Active,,,http://www.redfin.com/FL/Ocoee/2191-Alclobe-Cir-34761/unit-2/home/46785798,Stellar MLS,O5823702,N,Y,28.5730498,-81.5082289,34761-3,1640.0,3,34761,1756.250123057127,-116.25012305712698
208,MLS Listing,,Single Family Residential,1020 Montcalm St,ORLANDO,FL,32806,609000.0,4,3.0,SOUTHERN OAKS,3266,15484,1973,2,186,12,Active,,,http://www.redfin.com/FL/Orlando/1020-Montcalm-St-32806/unit-NO/home/46766371,Stellar MLS,O5823539,N,Y,28.4996103,-81.3651406,32806-4,,,,3775.625299767162,
209,MLS Listing,,Single Family Residential,9413 Rosalie Ct,ORLANDO,FL,32825,220000.0,3,2.0,COLONIAL LAKES 1ST ADD,1176,4229,1996,2,187,13,Active,November-9-2019 12:00 PM,November-9-2019 03:00 PM,http://www.redfin.com/FL/Orlando/9413-Rosalie-Ct-32825/home/46814489,Stellar MLS,O5823358,N,Y,28.5653545,-81.2593472,32825-3,1605.0,3,32825,1587.5001082902718,17.499891709728217
210,MLS Listing,,Single Family Residential,100 Avery Lake Dr,WINTER SPRINGS,FL,32708,440000.0,4,3.5,AVERY PARK,3639,5783,2002,2,121,116,Active,,,http://www.redfin.com/FL/Winter-Springs/100-Avery-Lake-Dr-32708/home/46473927,Stellar MLS,O5823416,N,Y,28.6926927,-81.2644661,32708-4,,,,2825.0002165805436,
211,MLS Listing,,Single Family Residential,2637 Stanmore Ct,ORLANDO,FL,32817,381900.0,5,3.0,RIVER OAKS LANDING,2739,11626,1997,2,139,49,Active,,,http://www.redfin.com/FL/Orlando/2637-Stanmore-Ct-32817/home/46743003,Stellar MLS,O5823700,N,Y,28.5833718,-81.2253558,32817-5,,,,2498.1876879820675,
212,MLS Listing,,Single Family Residential,1804 Precious Cir,APOPKA,FL,32712,275900.0,3,2.0,STONEYWOOD PH 1,1880,10666,2000,2,147,20,Active,,,http://www.redfin.com/FL/Apopka/1804-Precious-Cir-32712/home/46936269,Stellar MLS,O5823699,N,Y,28.7113631,-81.5351725,32712-3,1600.0,3,32712,1901.9376358058455,-301.9376358058455
213,MLS Listing,,Condo/Co-op,25210 Northlake Dr #210,SANFORD,FL,32773,114500.0,2,2.0,NORTHLAKE VILLAGE CONDO 8,960,273,1989,2,119,386,Active,,,http://www.redfin.com/FL/Sanford/25210-Northlake-Dr-32773/unit-210/home/169647505,Stellar MLS,O5823598,N,Y,28.752572,-81.29319,32773-2,1250.0,2,32773,994.0625563601643,255.9374436398357
214,MLS Listing,,Single Family Residential,2241 Long Derby Way,CASSELBERRY,FL,32707,345000.0,4,3.0,LEGACY PARK RESIDENTIAL PH 1 & 2 A REP,2548,10443,2007,2,135,184,Active,,,http://www.redfin.com/FL/Casselberry/2241-Long-Derby-Way-32707/home/46336065,Stellar MLS,O5823666,N,Y,28.6786413,-81.2995582,32707-4,,,,2290.6251698188353,
215,MLS Listing,,Single Family Residential,1685 Juniper Hammock St,WINTER GARDEN,FL,34787,523234.0,5,4.5,MCALLISTER LANDING PHASE 2,2816,11905,2020,2,186,142,Active,,,http://www.redfin.com/FL/Winter-Garden/1685-Juniper-Hammock-St-34787/home/169647410,Stellar MLS,O5823682,N,Y,28.5923717,-81.5723596,34787-5,,,,3293.1915075506918,
216,MLS Listing,,Single Family Residential,548 Fox Hunt Cir,LONGWOOD,FL,32750,365000.0,4,3.0,OSPREY POINTE,2345,8799,1996,2,156,33,Active,November-10-2019 02:00 PM,November-10-2019 04:00 PM,http://www.redfin.com/FL/Longwood/548-Fox-Hunt-Cir-32750/home/46405875,Stellar MLS,O5823609,N,Y,28.728137,-81.3562263,32750-4,,,,2403.1251796634056,
217,MLS Listing,,Condo/Co-op,132 Vista Verdi Cir #228,LAKE MARY,FL,32746,139900.0,2,2.5,NOTTING HILL A CONDO,1242,551,2000,2,113,314,Active,,,http://www.redfin.com/FL/Lake-Mary/132-Vista-Verdi-Cir-32746/unit-228/home/46338479,Stellar MLS,O5823662,N,Y,28.7549649,-81.3698675,32746-2,1473.0,2,32746,1136.9375688627683,336.06243113723167
218,MLS Listing,,Single Family Residential,5826 Coquyt Dr #2,MOUNT DORA,FL,32757,245000.0,4,2.0,STONEYBROOK HILLS A,1584,8400,2012,2,155,127,Active,,,http://www.redfin.com/FL/Mt-Dora/5826-Coquyt-Dr-32757/unit-2/home/46623399,Stellar MLS,O5823309,N,Y,28.7849833,-81.604641,32757-4,,,,1728.1251205959848,
219,MLS Listing,,Single Family Residential,124 Oak Dr,ALTAMONTE SPRINGS,FL,32714,239900.0,3,2.0,GOLDIE MANOR 1ST ADD,1556,8120,1967,2,154,,Active,,,http://www.redfin.com/FL/Altamonte-Springs/124-Oak-Dr-32714/home/46392407,Stellar MLS,T3208453,N,Y,28.6652078,-81.3947332,32714-3,1485.0,3,32714,1699.4376180856193,-214.4376180856193
220,MLS Listing,,Single Family Residential,5615 Ansley Way #1,MOUNT DORA,FL,32757,235000.0,3,2.0,STONEYBROOK HILLS 18,1588,9056,2006,2,148,127,Active,,,http://www.redfin.com/FL/Mt-Dora/5615-Ansley-Way-32757/unit-1/home/46609154,Stellar MLS,O5823459,N,Y,28.7847936,-81.6164804,32757-3,,,,1671.8751156736994,
221,MLS Listing,,Single Family Residential,819 Bates Ct,CASSELBERRY,FL,32707,264900.0,3,2.5,HOLLOWBROOK WEST PH 4,1747,6574,1988,2,152,34,Active,,,http://www.redfin.com/FL/Casselberry/819-Bates-Ct-32707/home/46423409,Stellar MLS,T3208439,N,Y,28.651562,-81.2862285,32707-3,1694.0,3,32707,1840.0626303913318,-146.06263039133182
222,MLS Listing,,Single Family Residential,721 Tropic Hill Dr,ALTAMONTE SPRINGS,FL,32701,247500.0,4,2.0,SANLANDO,1558,9526,1974,2,159,,Active,,,http://www.redfin.com/FL/Altamonte-Springs/721-Tropic-Hill-Dr-32701/home/46382753,Stellar MLS,O5822924,N,Y,28.6709631,-81.363766,32701-4,,,,1742.187621826556,
223,MLS Listing,,Mobile/Manufactured Home,3000 Clarcona Rd #825,APOPKA,FL,32703,55000.0,2,2.0,YOGI BEARS JELLYSTONE PARK CONDO 02A,778,2404,1993,2,71,155,Active,,,http://www.redfin.com/FL/Apopka/3000-Clarcona-Rd-32703/unit-825/home/46868710,Stellar MLS,O5823671,N,Y,28.632881,-81.5020726,32703-2,1325.0,2,32703,659.3750270725681,665.6249729274319
224,MLS Listing,,Single Family Residential,51 Pine St,WINDERMERE,FL,34786,2400000.0,4,4.5,WINDERMERE TOWN,6100,84600,2003,2,393,,Active,,,http://www.redfin.com/FL/Windermere/51-Pine-St-34786/home/46803132,Stellar MLS,O5823655,N,Y,28.5008961,-81.5414086,34786-4,2495.0,4,34786,13850.001181348422,-11355.001181348422
225,MLS Listing,,Condo/Co-op,5405 Lake Margaret Dr Unit D,ORLANDO,FL,32812,149900.0,2,2.0,MANORS BRYN MAWR CONDO PH 19,919,15058,1988,2,163,260,Active,,,http://www.redfin.com/FL/Orlando/5405-Lake-Margaret-Dr-32812/unit-D/home/169646561,Stellar MLS,O5823244,N,Y,28.5066872,-81.3158086,32812-2,1283.0,2,32812,1193.1875737850535,89.81242621494653
226,MLS Listing,,Townhouse,2770 Devie Ct #2,ORLANDO,FL,32822,174990.0,3,2.5,RIO PINAR LAKES PH 01,1252,2796,1983,2,140,108,Active,,,http://www.redfin.com/FL/Orlando/2770-Devie-Ct-32822/unit-2/home/46693656,Stellar MLS,O5823604,N,Y,28.5103778,-81.2786704,32822-3,1511.5,3,32822,1334.318836135067,177.18116386493307
227,MLS Listing,,Single Family Residential,300 Magnolia Lake Dr,LONGWOOD,FL,32779,899000.0,5,7.5,SWEETWATER CLUB UNIT 2,7153,63598,1980,2,126,249,Active,,,http://www.redfin.com/FL/Longwood/300-Magnolia-Lake-Dr-32779/home/46444425,Stellar MLS,O5823575,N,Y,28.7038022,-81.4524892,32779-5,,,,5406.875442513429,
228,MLS Listing,,Single Family Residential,112 Wild Fern Dr,LONGWOOD,FL,32779,419000.0,4,2.0,SPRINGS THE DEERWOOD ESTATES,2300,20034,1980,2,182,148,Active,,,http://www.redfin.com/FL/Longwood/112-Wild-Fern-Dr-32779/home/46354104,Stellar MLS,O5823304,N,Y,28.6963729,-81.3999289,32779-4,,,,2706.8752062437447,
229,MLS Listing,,Townhouse,221 Heron Bay Cir,LAKE MARY,FL,32746,219900.0,2,2.5,GREENWOOD LAKES UNIT 8,1544,4533,1984,2,142,331,Active,,,http://www.redfin.com/FL/Lake-Mary/221-Heron-Bay-Cir-32746/home/46401712,Stellar MLS,T3208405,N,Y,28.747657,-81.355788,32746-2,1473.0,2,32746,1586.937608241049,-113.93760824104902
230,MLS Listing,,Single Family Residential,1721 Hourglass Dr,ORLANDO,FL,32806,514900.0,5,2.5,HOURGLASS LAKE PARK,2649,46605,1926,2,194,,Active,,,http://www.redfin.com/FL/Orlando/1721-Hourglass-Dr-32806/home/46723540,Stellar MLS,O5823526,N,Y,28.5217622,-81.3580307,32806-5,,,,3246.3127534484593,
231,MLS Listing,,Single Family Residential,1516 Glenwick Dr,WINDERMERE,FL,34786,569900.0,6,4.0,RESERVE AT BELMERE 48 23,3567,12767,2005,2,160,181,Active,,,http://www.redfin.com/FL/Windermere/1516-Glenwick-Dr-34786/home/46968348,Stellar MLS,O5823361,N,Y,28.5214946,-81.5446872,34786-6,,,,3555.687780521027,
232,MLS Listing,,Single Family Residential,2432 Balforn Tower Way #7,WINTER GARDEN,FL,34787,359900.0,5,2.5,STONEYBROOK WEST D,2172,5661,2008,2,166,166,Active,,,http://www.redfin.com/FL/Winter-Garden/2432-Balforn-Tower-Way-34787/unit-7/home/46624901,Stellar MLS,O5823617,N,Y,28.5160966,-81.6002302,34787-5,,,,2374.43767715304,
233,MLS Listing,,Condo/Co-op,114 Vista Verdi Cir #128,LAKE MARY,FL,32746,149900.0,2,2.5,NOTTING HILL A CONDO,1242,577,2000,2,121,314,Active,,,http://www.redfin.com/FL/Lake-Mary/114-Vista-Verdi-Cir-32746/unit-128/home/46338609,Stellar MLS,O5823601,N,Y,28.7535845,-81.3695674,32746-2,1473.0,2,32746,1193.1875737850535,279.8124262149465
234,MLS Listing,,Condo/Co-op,5413 Lake Margaret Dr #167,ORLANDO,FL,32812,148500.0,2,2.0,MANORS BRYN MAWR CONDO PH 16,919,18383,1988,2,162,260,Active,,,http://www.redfin.com/FL/Orlando/5413-Lake-Margaret-Dr-32812/unit-167/home/46744549,Stellar MLS,O5823576,N,Y,28.5073053,-81.3163626,32812-2,1283.0,2,32812,1185.3125730959337,97.68742690406634
235,MLS Listing,,Single Family Residential,4551 Conway Landing Dr,ORLANDO,FL,32812,299995.0,3,2.0,CONWAY LANDINGS,1507,6600,1990,2,199,115,Active,,,http://www.redfin.com/FL/Orlando/4551-Conway-Landing-Dr-32812/home/46796582,Stellar MLS,O5823594,N,Y,28.4896946,-81.3218264,32812-3,,,,2037.4720226660916,
236,MLS Listing,,Single Family Residential,625 Green Rock Ct,APOPKA,FL,32712,399000.0,5,3.0,ROCK SPGS RDG PH V-A,3249,15156,2005,2,123,35,Active,,,http://www.redfin.com/FL/Apopka/625-Green-Rock-Ct-32712/home/46582183,Stellar MLS,G5022516,N,Y,28.7523689,-81.5272854,32712-5,,,,2594.3751963991745,
237,MLS Listing,,Vacant Land,Oak Hollow Ln,OVIEDO,FL,32765,645000.0,,,FARMS OF SOUTHERN OAKS,,219318,,2,,,Active,,,http://www.redfin.com/FL/Unknown/Oak-Hollow-Ln-32765/home/54712737,Stellar MLS,O5823597,N,Y,28.61862,-81.247499,32765-nan,,,,3978.125317487388,
238,MLS Listing,,Single Family Residential,1682 Holcomb Creek St,WINTER GARDEN,FL,34787,617999.0,5,3.5,TWINWATERS,4301,7608,2017,2,144,175,Active,,,http://www.redfin.com/FL/Winter-Garden/1682-Holcomb-Creek-St-34787/home/107969401,Stellar MLS,O5823488,N,Y,28.515309,-81.6323669,34787-5,,,,3826.244679196726,
239,MLS Listing,,Single Family Residential,4608 Robbins Ave,Other City Value - Out Of Area,FL,32808,215900.0,4,2.5,Meadowbrook Annex 2nd Add,,,1959,2,,,Active,,,http://www.redfin.com/FL/Orlando/4608-Robbins-Ave-32808/home/46720636,MARMLS,A10767278,N,Y,28.5987351,-81.4562436,32808-4,,,,1564.437606272135,
240,MLS Listing,,Single Family Residential,5946 Rutherford Rd #2,MOUNT DORA,FL,32757,259000.0,3,2.0,STONEYBROOK HILLS A,1572,9003,2007,2,165,127,Active,,,http://www.redfin.com/FL/Mt-Dora/5946-Rutherford-Rd-32757/unit-2/home/46623530,Stellar MLS,O5821778,N,Y,28.7824576,-81.6050906,32757-3,,,,1806.8751274871838,
241,MLS Listing,,Single Family Residential,2338 S Brown Ave,ORLANDO,FL,32806,450000.0,3,2.5,75526,1792,4791,2019,2,251,,Active,,,http://www.redfin.com/FL/Orlando/2338-S-Brown-Ave-32806/home/46685757,Stellar MLS,O5823550,N,Y,28.5157164,-81.3622194,32806-3,1987.0,3,32806,2881.250221502829,-894.2502215028289
242,MLS Listing,,Single Family Residential,2114 Bluff Oak St,APOPKA,FL,32712,350000.0,4,2.0,BENT OAK PH 03,2180,15012,1983,2,161,27,Active,,,http://www.redfin.com/FL/Apopka/2114-Bluff-Oak-St-32712/home/46679263,Stellar MLS,S5025883,N,Y,28.6875535,-81.4704445,32712-4,1962.5,4,32712,2318.750172279978,-356.25017227997796
243,MLS Listing,,Single Family Residential,,ORLANDO,FL,32804,210000.0,3,1.5,,1080,8747,1955,2,194,,Active,,,http://www.redfin.com/FL/Orlando/Undisclosed-address-32804/home/46691377,Stellar MLS,O5823529,N,Y,28.598026,-81.3936596,32804-3,1899.0,3,32804,1531.2501033679869,367.74989663201313
244,MLS Listing,,Condo/Co-op,6466 Cava Alta Dr #309,ORLANDO,FL,32835,209000.0,3,2.0,VENTURA/STONEBRIDGE COMMONS 03,1447,1942,2005,2,144,385,Active,,,http://www.redfin.com/FL/Orlando/6466-Cava-Alta-Dr-32835/unit-309/home/46629153,Stellar MLS,O5823319,N,Y,28.5150082,-81.4693743,32835-3,1695.0,3,32835,1525.6251028757586,169.37489712424144
245,MLS Listing,,Single Family Residential,4752 Norwalk Pl #2,ORLANDO,FL,32808,189000.0,3,2.0,SIGNAL HILL,1195,8249,1976,2,158,,Active,,,http://www.redfin.com/FL/Orlando/4752-Norwalk-Pl-32808/unit-2/home/46725701,Stellar MLS,O5822956,N,Y,28.5930087,-81.445087,32808-3,1250.0,3,32808,1413.125093031188,-163.12509303118804
246,MLS Listing,,Condo/Co-op,,ORLANDO,FL,32839,84900.0,2,2.0,,1132,1250,1983,2,75,295,Active,,,http://www.redfin.com/FL/Orlando/Undisclosed-address-32839/home/46743360,Stellar MLS,O5822760,N,Y,28.4991323,-81.4117514,32839-2,1500.0,2,32839,827.5625417902004,672.4374582097996
247,MLS Listing,,Single Family Residential,526 Devon Pl,LAKE MARY,FL,32746,530000.0,3,3.5,HEATHROW/DEVON GREEN,2443,5205,1988,2,217,277,Active,,,http://www.redfin.com/FL/Lake-Mary/526-Devon-Pl-32746/home/46381664,Stellar MLS,O5823447,N,Y,28.7705594,-81.369823,32746-3,1750.0,3,32746,3331.2502608811096,-1581.2502608811096
248,MLS Listing,,Single Family Residential,13909 Countryplace Dr,ORLANDO,FL,32826,239500.0,4,2.0,COUNTRYPLACE,1358,7898,1985,2,176,,Active,,,http://www.redfin.com/FL/Orlando/13909-Countryplace-Dr-32826/home/46781147,Stellar MLS,S5025850,N,Y,28.5815011,-81.1805849,32826-4,,,,1697.1876178887278,
249,MLS Listing,,Townhouse,7857 County Down Ct,ORLANDO,FL,32822,180000.0,3,2.0,ROYAL MANOR VILLAS,1201,4206,1980,2,150,47,Active,,,http://www.redfin.com/FL/Orlando/7857-County-Down-Ct-32822/unit-1/home/46759041,Stellar MLS,O5823535,N,Y,28.5097525,-81.2803799,32822-3,1511.5,3,32822,1362.5000886011317,148.99991139886833
250,MLS Listing,,Condo/Co-op,310 Cherokee Ct Unit H,ALTAMONTE SPRINGS,FL,32701,78800.0,2,2.0,ALTAMONTE HEIGHTS,1065,357,1975,2,74,198,Active,,,http://www.redfin.com/FL/Altamonte-Springs/310-Cherokee-Ct-32701/unit-H/home/46422029,Stellar MLS,O5823538,N,Y,28.648452,-81.383022,32701-2,1321.0,2,32701,793.2500387876064,527.7499612123936
251,MLS Listing,,Single Family Residential,3795 Bear Gully Rd,WINTER PARK,FL,32792,299000.0,3,2.0,BEAR GULLY ACRES,1539,40511,1977,2,194,,Active,,,http://www.redfin.com/FL/Winter-Park/3795-Bear-Gully-Rd-32792/home/46463155,Stellar MLS,O5822826,N,Y,28.6188811,-81.2786597,32792-3,1700.0,3,32792,2031.8751471763242,-331.87514717632416
252,MLS Listing,,Condo/Co-op,136 Blue Pointe Way #350,ALTAMONTE SPRINGS,FL,32701,78900.0,1,1.0,WATERSIDE AT CRANES ROOST A CONDO COMMUNITY,496,252,1980,2,159,253,Active,,,http://www.redfin.com/FL/Altamonte-Springs/136-Blue-Pointe-Way-32701/unit-350/home/46335097,Stellar MLS,G5022426,N,Y,28.6636291,-81.3865034,32701-1,1077.5,1,32701,793.8125388368294,283.6874611631706
253,MLS Listing,,Single Family Residential,7258 Branchtree Dr,ORLANDO,FL,32835,384900.0,4,3.0,WOODLANDS WINDERMERE,2690,16804,1987,2,143,20,Active,,,http://www.redfin.com/FL/Orlando/7258-Branchtree-Dr-32835/unit-3/home/46757023,Stellar MLS,O5823519,N,Y,28.4990852,-81.4802891,32835-4,,,,2515.062689458753,
254,MLS Listing,,Single Family Residential,202 Tildenville School Rd,WINTER GARDEN,FL,34787,699990.0,3,2.5,WINTER GARDEN,2602,86249,1957,2,269,,Active,,,http://www.redfin.com/FL/Winter-Garden/202-Tildenville-School-Rd-34787/home/52955405,Stellar MLS,G5022502,N,Y,28.5643233,-81.6048979,34787-3,1900.0,3,34787,4287.444094555034,-2387.444094555034
255,MLS Listing,,Single Family Residential,2511 Northumberland Ave,ORLANDO,FL,32804,925000.0,4,3.5,PALM TERRACE,3078,7718,2014,2,301,6,Active,,,http://www.redfin.com/FL/Orlando/2511-Northumberland-Ave-32804/home/46668858,Stellar MLS,O5823520,N,Y,28.5741335,-81.3974599,32804-4,,,,5553.12545531137,
256,MLS Listing,,Single Family Residential,4949 Hoperita St,ORLANDO,FL,32812,300000.0,3,2.0,DOVER ESTATES THIRD ADD,2200,10253,1975,2,136,,Active,,,http://www.redfin.com/FL/Orlando/4949-Hoperita-St-32812/home/46709090,Stellar MLS,O5822844,N,Y,28.5178273,-81.3247706,32812-3,,,,2037.5001476685527,
257,MLS Listing,,Condo/Co-op,238 Riverbend Dr #106,ALTAMONTE SPRINGS,FL,32714,148800.0,2,2.0,RESERVE AT WEKIVA BEND A CONDO,1266,607,1985,2,118,399,Active,,,http://www.redfin.com/FL/Altamonte-Springs/238-Riverbend-Dr-32714/unit-106/home/46339737,Stellar MLS,O5823496,N,Y,28.6650987,-81.4105785,32714-2,1297.5,2,32714,1187.000073243602,110.49992675639805
258,MLS Listing,,Single Family Residential,689 S Lakemont Ave,WINTER PARK,FL,32792,359000.0,3,2.5,KENILWORTH SHORES SEC 06,1698,9317,1959,2,211,,Active,,,http://www.redfin.com/FL/Winter-Park/689-S-Lakemont-Ave-32792/home/46735552,Stellar MLS,O5823464,N,Y,28.5871488,-81.3281446,32792-3,1700.0,3,32792,2369.3751767100343,-669.3751767100343
259,MLS Listing,,Condo/Co-op,206 E South St #1032,ORLANDO,FL,32801,142500.0,1,1.0,GRANDE DOWNTOWN ORLANDO,685,93940,2002,2,208,270,Active,,,http://www.redfin.com/FL/Orlando/206-E-South-St-32801/unit-1032/home/46605666,Stellar MLS,O5823227,N,Y,28.5377205,-81.3749288,32801-1,1624.5,1,32801,1151.5625701425624,472.93742985743756
260,MLS Listing,,Single Family Residential,5951 Groveline Dr,ORLANDO,FL,32810,214900.0,3,2.0,WILLOW CREEK PH 01,1323,9761,1985,3,162,,Active,,,http://www.redfin.com/FL/Orlando/5951-Groveline-Dr-32810/home/46929512,Stellar MLS,T3208270,N,Y,28.6180003,-81.4733615,32810-3,1500.0,3,32810,1558.8126057799063,-58.812605779906335
261,MLS Listing,,Single Family Residential,10920 Dearden Cir,ORLANDO,FL,32817,320000.0,4,2.0,WOOD GLEN PH 02 STRAW RIDGE PD,2258,9538,1991,3,142,25,Active,,,http://www.redfin.com/FL/Orlando/10920-Dearden-Cir-32817/home/46715055,Stellar MLS,O5823504,N,Y,28.6045442,-81.2282822,32817-4,,,,2150.0001575131228,
262,MLS Listing,,Townhouse,3441 Windsor Lake Cir,SANFORD,FL,32773,175000.0,2,2.5,WINDSOR LAKE TWNHMS,1289,1650,2007,3,136,240,Active,,,http://www.redfin.com/FL/Sanford/3441-Windsor-Lake-Cir-32773/home/46338752,Stellar MLS,O5823497,N,Y,28.765959,-81.276649,32773-2,1250.0,2,32773,1334.375086139989,-84.37508613998898
263,MLS Listing,,Single Family Residential,2639 S French Ave,SANFORD,FL,32773,263000.0,3,2.5,PINE CREST HEIGHTS REP,1554,10575,1955,3,169,,Active,,,http://www.redfin.com/FL/Sanford/2639-S-French-Ave-32773/home/46348144,Stellar MLS,V4910489,N,Y,28.7787631,-81.2727245,32773-3,,,,1829.375129456098,
264,MLS Listing,,Townhouse,1936 Meeting Pl,ORLANDO,FL,32814,625000.0,3,2.5,BALDWIN PARK UNIT 2,2669,6073,2005,3,234,357,Active,,,http://www.redfin.com/FL/Orlando/1936-Meeting-Pl-32814/unit-2/home/46586379,Stellar MLS,O5820359,N,Y,28.56939,-81.3321069,32814-3,2500.0,3,32814,3865.625307642818,-1365.625307642818
265,MLS Listing,,Single Family Residential,6304 Gamble Dr,ORLANDO,FL,32818,235000.0,3,2.0,POWERS PLACE,1577,7882,1967,3,149,,Active,,,http://www.redfin.com/FL/Orlando/6304-Gamble-Dr-32818/home/46769466,Stellar MLS,O5823119,N,Y,28.5705557,-81.4681923,32818-3,1575.0,3,32818,1671.8751156736994,-96.87511567369938
266,MLS Listing,,Single Family Residential,9509 Rosewalk Ct,ORLANDO,FL,32825,242500.0,3,2.5,ROSEWALK,1595,5361,1991,3,152,,Active,,,http://www.redfin.com/FL/Orlando/9509-Rosewalk-Ct-32825/home/46815337,Stellar MLS,O5823473,N,Y,28.5644859,-81.2550023,32825-3,1605.0,3,32825,1714.0626193654132,-109.06261936541318
267,MLS Listing,,Condo/Co-op,291 Scottsdale Sq #291,WINTER PARK,FL,32792,65000.0,1,1.0,WINTER PARK WOODS CONDO,785,8564,1974,3,83,240,Active,,,http://www.redfin.com/FL/Winter-Park/291-Scottsdale-Sq-32792/unit-291/home/145370222,Stellar MLS,O5823465,N,Y,28.5872644,-81.304732,32792-1,1150.0,1,32792,715.625031994853,434.374968005147
268,MLS Listing,,Single Family Residential,,ORLANDO,FL,32805,106000.0,2,1.0,,729,6749,1951,3,145,,Active,,,http://www.redfin.com/FL/Orlando/Undisclosed-address-32805/home/46699322,Stellar MLS,O5823433,N,Y,28.5202855,-81.3956349,32805-2,,,,946.2500521762221,
269,MLS Listing,,Single Family Residential,6716 Winder Lynne Ln,ORLANDO,FL,32819,405000.0,4,3.0,PHILLIPS OAKS,2251,6601,2000,3,180,54,Active,,,http://www.redfin.com/FL/Orlando/6716-Winder-Lynne-Ln-32819/home/46772160,Stellar MLS,O5823462,N,Y,28.4902477,-81.474005,32819-4,,,,2628.1251993525457,
270,MLS Listing,,Condo/Co-op,2727 W Oak Ridge Rd #5,ORLANDO,FL,32809,89900.0,2,1.0,CHATEAU DE VILLE CONDO PH 01,847,166804,1969,3,106,337,Active,,,http://www.redfin.com/FL/Orlando/2727-W-Oak-Ridge-Rd-32809/unit-5/home/46825828,Stellar MLS,O5823069,N,Y,28.4732547,-81.4134569,32809-2,,,,855.687544251343,
271,MLS Listing,,Single Family Residential,1098 Henry Balch Dr,ORLANDO,FL,32810,190000.0,3,2.0,KINGSWOOD MANOR 7TH ADD,1339,7127,1971,3,142,26,Active,,,http://www.redfin.com/FL/Orlando/1098-Henry-Balch-Dr-32810/home/46915053,Stellar MLS,O5823370,N,Y,28.6120185,-81.3967514,32810-3,1500.0,3,32810,1418.7500935234166,81.24990647658342
272,MLS Listing,,Single Family Residential,443 Woodcrest St,WINTER SPRINGS,FL,32708,395000.0,4,3.0,WINDING HOLLOW UNIT 2,2471,10494,1996,3,160,36,Active,,,http://www.redfin.com/FL/Winter-Springs/443-Woodcrest-St-32708/home/46462483,Stellar MLS,O5823384,N,Y,28.6958032,-81.2793693,32708-4,,,,2571.8751944302608,
273,MLS Listing,,Vacant Land,1608 Daniels Rd,WINTER GARDEN,FL,34787,1175000.0,,,WINTER GARDEN,,270943,,3,,,Active,,,http://www.redfin.com/FL/Winter-Garden/1608-Daniels-Rd-34787/home/169642238,Stellar MLS,O5822825,N,Y,28.5429439,-81.5835105,34787-nan,,,,6959.375578368497,
274,MLS Listing,,Single Family Residential,1700 Rutledge Rd,LONGWOOD,FL,32779,430000.0,5,3.5,MANDARIN SEC 3,2634,47220,1984,3,163,,Active,,,http://www.redfin.com/FL/Longwood/1700-Rutledge-Rd-32779/home/46433984,Stellar MLS,V4910490,N,Y,28.7278899,-81.3777908,32779-5,,,,2768.750211658259,
275,MLS Listing,,Townhouse,2624 Lobelia Dr,LAKE MARY,FL,32746,345000.0,4,3.5,FOUNTAIN PARKE AT LAKE MARY PH 2,2014,1141,2017,3,171,380,Active,,,http://www.redfin.com/FL/Lake-Mary/2624-Lobelia-Dr-32746/home/46337597,Stellar MLS,O5822521,N,Y,28.763638,-81.340163,32746-4,2245.0,4,32746,2290.6251698188353,-45.625169818835275
276,MLS Listing,,Condo/Co-op,630 Cranes Way #302,ALTAMONTE SPRINGS,FL,32701,155000.0,2,2.0,CRANES ROOST VILLAGE 7,1193,482,1981,4,130,347,Active,,,http://www.redfin.com/FL/Altamonte-Springs/630-Cranes-Way-32701/unit-302/home/46380545,Stellar MLS,O5823301,N,Y,28.6720217,-81.380108,32701-2,1321.0,2,32701,1221.875076295419,99.12492370458108
277,MLS Listing,,Single Family Residential,,ORLANDO,FL,32805,199000.0,4,2.0,,1416,6747,1958,4,141,,Active,,,http://www.redfin.com/FL/Orlando/Undisclosed-address-32805/home/46699231,Stellar MLS,O5823435,N,Y,28.5188694,-81.3951297,32805-4,,,,1469.3750979534732,
278,MLS Listing,,Single Family Residential,,ORLANDO,FL,32805,199000.0,4,2.0,,1656,6747,1986,4,120,,Active,,,http://www.redfin.com/FL/Orlando/Undisclosed-address-32805/home/46699230,Stellar MLS,O5823431,N,Y,28.518906,-81.3952914,32805-4,,,,1469.3750979534732,
279,MLS Listing,,Single Family Residential,527 Valencia Place Cir,ORLANDO,FL,32825,232900.0,3,2.0,VALENCIA PLACE,1376,6279,1994,4,169,16,Active,,,http://www.redfin.com/FL/Orlando/527-Valencia-Pl-Cir-32825/home/46891520,Stellar MLS,O5823427,N,Y,28.551586,-81.2597774,32825-3,1605.0,3,32825,1660.0626146400195,-55.06261464001955
280,MLS Listing,,Single Family Residential,,ORLANDO,FL,32805,353000.0,5,3.5,,1863,16858,1943,4,189,,Active,,,http://www.redfin.com/FL/Orlando/Undisclosed-address-32805/home/169641843,Stellar MLS,O5823426,N,Y,28.5166617,-81.3934449,32805-5,,,,2335.6251737566636,
281,MLS Listing,,Condo/Co-op,6136 Westgate Dr #101,ORLANDO,FL,32835,98500.0,1,1.0,CENTRAL PARK CONDOMINIUM,722,4445,1988,4,136,325,Active,,,http://www.redfin.com/FL/Orlando/6136-Westgate-Dr-32835/unit-101/home/46617428,Stellar MLS,O5823414,N,Y,28.5312346,-81.4663838,32835-1,1170.0,1,32835,904.0625484845082,265.93745151549183
282,MLS Listing,,Single Family Residential,30405 Tokara Ter,MOUNT DORA,FL,32757,339900.0,4,3.0,SULLIVAN RANCH SUB,3286,7200,2007,4,103,135,Active,,,http://www.redfin.com/FL/Mt-Dora/30405-Tokara-Ter-32757/home/45772155,Stellar MLS,G5022484,N,Y,28.7871314,-81.6035704,32757-4,,,,2261.93766730847,
283,MLS Listing,,Single Family Residential,229 Flame Ave,MAITLAND,FL,32751,620000.0,4,4.0,HIDDEN ESTATES UNIT 3,4055,33750,1971,4,153,16,Active,November-10-2019 01:00 PM,November-10-2019 04:00 PM,http://www.redfin.com/FL/Maitland/229-Flame-Ave-32751/home/46421131,Stellar MLS,O5819492,N,Y,28.6460493,-81.3874972,32751-4,,,,3837.5003051816752,
284,MLS Listing,,Mobile/Manufactured Home,1044 Osceola Trl,CASSELBERRY,FL,32707,180000.0,3,2.0,LAKE KATHRYN PARK 5TH ADD,1512,10193,2018,4,119,,Active,,,http://www.redfin.com/FL/Casselberry/1044-Osceola-Trl-32707/home/46358450,Stellar MLS,O5823401,N,Y,28.6874411,-81.3168832,32707-3,1694.0,3,32707,1362.5000886011317,331.49991139886833
285,MLS Listing,,Single Family Residential,3850 Gatlin Place Cir,ORLANDO,FL,32812,375000.0,5,2.5,GATLIN PLACE PHASE 1,2258,8626,1992,4,166,27,Active,,,http://www.redfin.com/FL/Orlando/3850-Gatlin-Pl-Cir-32812/home/46744036,Stellar MLS,O5822252,N,Y,28.4965593,-81.3265543,32812-5,,,,2459.3751845856905,
286,MLS Listing,,Single Family Residential,6145 Glory Bower Dr,WINTER GARDEN,FL,34787,464545.0,4,2.5,HAMILTON GARDENS,3136,5850,2020,4,148,79,Active,,,http://www.redfin.com/FL/Unknown/6145-Glory-Bower-Dr-34787/home/169641667,Stellar MLS,W7817707,N,Y,28.47782112,-81.63358381,34787-4,2275.0,4,34787,2963.0658536622927,-688.0658536622927
287,MLS Listing,,Condo/Co-op,4225 Thornbriar Ln #107,ORLANDO,FL,32822,88000.0,1,1.0,REGENCY GARDENS,580,9080,1987,4,152,200,Active,,,http://www.redfin.com/FL/Orlando/4225-Thornbriar-Ln-32822/unit-107/home/169641578,Stellar MLS,O5823400,N,Y,28.5007713,-81.312821,32822-1,1159.0,1,32822,845.0000433161089,313.9999566838911
288,MLS Listing,,Single Family Residential,904 Main St,WINDERMERE,FL,34786,2699999.0,4,4.5,WINDERMERE TOWN,6166,97519,2009,4,438,,Active,,,http://www.redfin.com/FL/Windermere/904-Main-St-34786/home/46802927,Stellar MLS,O5823299,N,Y,28.4905824,-81.5335651,34786-4,2495.0,4,34786,15537.49570401648,-13042.49570401648
289,MLS Listing,,Single Family Residential,717 Amberly Jewel Way,OVIEDO,FL,32765,365000.0,3,2.0,AMBERLY,2082,4398,2013,4,175,75,Active,,,http://www.redfin.com/FL/Oviedo/717-Amberly-Jewel-Way-32765/home/54852135,Stellar MLS,O5823261,N,Y,28.6606439,-81.2418627,32765-3,1795.0,3,32765,2403.1251796634056,-608.1251796634056
290,MLS Listing,,Single Family Residential,4022 Spoonbill Ave #2,ORLANDO,FL,32822,199900.0,3,1.5,QUAIL TRAIL ESTATES,1080,10776,1978,4,185,,Active,,,http://www.redfin.com/FL/Orlando/4022-Spoonbill-Ave-32822/unit-2/home/46758747,Stellar MLS,O5823391,N,Y,28.4987447,-81.280896,32822-3,1511.5,3,32822,1474.4375983964787,37.062401603521266
291,MLS Listing,,Single Family Residential,1549 Madison Ivy Cir,APOPKA,FL,32712,289900.0,4,2.5,PARKSIDE AT ERROL ESTATES,2293,6978,2005,4,126,42,Active,,,http://www.redfin.com/FL/Apopka/1549-Madison-Ivy-Cir-32712/home/46594491,Stellar MLS,O5823386,N,Y,28.6933183,-81.5383656,32712-4,1962.5,4,32712,1980.6876426970446,-18.187642697044566
292,MLS Listing,,Single Family Residential,639 Grand St,ORLANDO,FL,32805,92000.0,3,1.0,OAKWOOD PARK,1008,5557,1920,4,91,,Active,,,http://www.redfin.com/FL/Orlando/639-Grand-St-32805/home/46924941,Stellar MLS,S5025840,N,Y,28.526807,-81.388442,32805-3,,,,867.5000452850228,
293,MLS Listing,,Single Family Residential,5014 Davisson Ave,ORLANDO,FL,32804,259900.0,3,2.0,FAIRVIEW SHORES,1362,15064,1938,4,191,,Active,,,http://www.redfin.com/FL/Orlando/5014-Davisson-Ave-32804/home/46697114,Stellar MLS,O5822769,N,Y,28.6045779,-81.4042227,32804-3,1899.0,3,32804,1811.9376279301894,87.06237206981064
294,MLS Listing,,Single Family Residential,577 Walden Ct,WINTER SPRINGS,FL,32708,245000.0,4,2.0,WALDEN TERRACE,1560,10151,1974,4,157,,Active,,,http://www.redfin.com/FL/Winter-Springs/577-Walden-Ct-32708/home/46356346,Stellar MLS,O5822273,N,Y,28.6945352,-81.3105211,32708-4,,,,1728.1251205959848,
295,MLS Listing,,Single Family Residential,5730 Magnolia Bloom Ter,OVIEDO,FL,32765,335000.0,4,2.5,ALOMA WOODS PH 2,2116,7606,1996,4,158,100,Active,,,http://www.redfin.com/FL/Oviedo/5730-Magnolia-Bloom-Ter-32765/home/46449937,Stellar MLS,O5823317,N,Y,28.6259585,-81.2363724,32765-4,,,,2234.3751648965504,
296,MLS Listing,,Townhouse,5437 Burnt Acorn Way,OVIEDO,FL,32765,248000.0,3,2.5,CLAYTON CROSSING TWNHMS SECOND AMD,1502,2000,2009,4,165,144,Active,,,http://www.redfin.com/FL/Oviedo/5437-Burnt-Acorn-Way-32765/home/46345794,Stellar MLS,O5822877,N,Y,28.622973,-81.260834,32765-3,1795.0,3,32765,1745.0001220726704,49.999877927329635
297,MLS Listing,,Townhouse,,WINTER SPRINGS,FL,32708,299800.0,3,3.0,,2176,4974,2006,4,138,184,Active,,,http://www.redfin.com/FL/Winter-Springs/Undisclosed-address-32708/home/46331169,Stellar MLS,O5823347,N,Y,28.705639,-81.281742,32708-3,1640.0,3,32708,2036.375147570107,-396.37514757010695
298,MLS Listing,,Single Family Residential,1124 Cherry Valley Way,ORLANDO,FL,32828,265000.0,4,2.5,BRIDGE WATER,2544,5200,2000,4,104,54,Active,,,http://www.redfin.com/FL/Orlando/1124-Cherry-Valley-Way-32828/home/46841264,Stellar MLS,O5823346,N,Y,28.5603477,-81.1863118,32828-4,2062.5,4,32828,1840.6251304405548,221.8748695594452
299,MLS Listing,,Single Family Residential,889 Buttonwood Ln,ALTAMONTE SPRINGS,FL,32714,259900.0,4,2.0,COUNTRY CREEK THE TRAILS AT,1474,7579,1985,4,176,48,Active,,,http://www.redfin.com/FL/Altamonte-Springs/889-Buttonwood-Ln-32714/home/46410623,Stellar MLS,O5823298,N,Y,28.6441139,-81.4335425,32714-4,,,,1811.9376279301894,
300,MLS Listing,,Single Family Residential,541 Harbor Point Blvd,ORLANDO,FL,32835,239000.0,3,2.0,HARBOR POINT,1165,12176,1982,4,205,,Active,,,http://www.redfin.com/FL/Orlando/541-Harbor-Point-Blvd-32835/home/46862119,Stellar MLS,O5822606,N,Y,28.53431,-81.4793669,32835-3,1695.0,3,32835,1694.3751176426135,0.6248823573864684
301,MLS Listing,,Townhouse,940 Douglas Ave #141,ALTAMONTE SPRINGS,FL,32714,165800.0,3,2.0,VILLAGE TWNHMS A CONDO,1500,961,1982,4,111,538,Active,,,http://www.redfin.com/FL/Altamonte-Springs/940-Douglas-Ave-32714/unit-141/home/46337995,Stellar MLS,O5823061,N,Y,28.6810292,-81.3919045,32714-3,1485.0,3,32714,1282.6250816114868,202.37491838851315
302,MLS Listing,,Single Family Residential,1649 Ravenall Ave,ORLANDO,FL,32811,149990.0,3,2.0,RICHMOND HEIGHTS,1074,6887,1971,4,140,,Active,,,http://www.redfin.com/FL/Orlando/1649-Ravenall-Ave-32811/home/46717072,Stellar MLS,S5025792,N,Y,28.5223385,-81.4387785,32811-3,1500.0,3,32811,1193.6938238293542,306.3061761706458
303,MLS Listing,,Single Family Residential,2420 Barksdale Dr,ORLANDO,FL,32822,215000.0,3,2.0,AZALEA PARK SEC 33,1104,8624,1960,4,195,,Active,November-9-2019 11:00 AM,November-9-2019 03:00 PM,http://www.redfin.com/FL/Orlando/2420-Barksdale-Dr-32822/home/46693579,Stellar MLS,S5025819,N,Y,28.5183134,-81.2896686,32822-3,1511.5,3,32822,1559.3751058291296,-47.87510582912955
304,MLS Listing,,Single Family Residential,2240 Howard Dr,WINTER PARK,FL,32789,899900.0,5,3.5,LAKE FOREST PARK,2822,7471,2019,4,319,,Active,,,http://www.redfin.com/FL/Winter-Park/2240-Howard-Dr-32789/home/46801147,Stellar MLS,O5822460,N,Y,28.5736111,-81.3410157,32789-5,,,,5411.937942956436,
305,MLS Listing,,Townhouse,2907 Greenwood Springs Loop,LAKE MARY,FL,32746,168500.0,2,2.5,CHASE TOWNHOMES,1095,901,2000,5,154,225,Active,,,http://www.redfin.com/FL/Lake-Mary/2907-Greenwood-Springs-Loop-32746/home/46468263,Stellar MLS,O5823339,N,Y,28.776724,-81.305839,32746-2,1473.0,2,32746,1297.8125829405037,175.18741705949628
306,MLS Listing,,Single Family Residential,3406 Bellington Dr,ORLANDO,FL,32835,585000.0,5,4.0,CYPRESS LANDING PH 03,3414,16788,1998,5,171,52,Active,November-9-2019 11:00 AM,November-9-2019 03:00 PM,http://www.redfin.com/FL/Orlando/3406-Bellington-Dr-32835/home/46749066,Stellar MLS,O5823332,N,Y,28.5036793,-81.4928987,32835-5,,,,3640.625287953678,
307,MLS Listing,,Single Family Residential,154 Springhurst Cir,LAKE MARY,FL,32746,379000.0,4,2.5,SPRINGHURST PARK,2099,13012,1989,5,181,29,Active,,,http://www.redfin.com/FL/Lake-Mary/154-Springhurst-Cir-32746/home/46371250,Stellar MLS,O5819965,N,Y,28.7713168,-81.3193549,32746-4,2245.0,4,32746,2481.875186554605,-236.87518655460508
308,MLS Listing,,Single Family Residential,7031 Hiawassee Overlook Dr,ORLANDO,FL,32835,345900.0,4,2.0,HIAWASSEE OVERLOOK 44/45,2156,8050,2001,5,160,83,Active,,,http://www.redfin.com/FL/Orlando/7031-Hiawassee-Overlook-Dr-32835/home/46953690,Stellar MLS,O5822796,N,Y,28.5342683,-81.4772651,32835-4,,,,2295.687670261841,
309,MLS Listing,,Single Family Residential,2312 Island Club Way,ORLANDO,FL,32822,289000.0,4,2.0,ISLAND CLUB AT RIO PINAR LAKES,1543,12141,1998,5,187,8,Active,,,http://www.redfin.com/FL/Orlando/2312-Island-Club-Way-32822/home/46693404,Stellar MLS,O5823330,N,Y,28.5132394,-81.2804229,32822-4,,,,1975.625142254039,
310,MLS Listing,,Single Family Residential,1252 Valley Creek Run,WINTER PARK,FL,32792,364800.0,4,3.5,LOST CREEK,2710,10390,1996,5,135,16,Active,,,http://www.redfin.com/FL/Winter-Park/1252-Valley-Creek-Run-32792/home/46423170,Stellar MLS,O5823325,N,Y,28.637137,-81.2935601,32792-4,,,,2402.0001795649596,
311,MLS Listing,,Single Family Residential,1581 Springtime Loop,WINTER PARK,FL,32792,294500.0,3,2.0,AUTUMN GLEN PH 3,1527,6554,1989,5,193,42,Active,,,http://www.redfin.com/FL/Winter-Park/1581-Springtime-Loop-32792/home/46432144,Stellar MLS,O5823322,N,Y,28.6363747,-81.2757782,32792-3,1700.0,3,32792,2006.5626449612957,-306.56264496129575
312,MLS Listing,,Single Family Residential,833 Battery Pointe Dr,ORLANDO,FL,32828,349900.0,6,4.0,WATERFORD CHASE EAST PH 02 VILLAGE,3493,6689,2004,5,100,54,Active,,,http://www.redfin.com/FL/Orlando/833-Battery-Pointe-Dr-32828/home/46973067,Stellar MLS,O5823092,N,Y,28.5525128,-81.1575971,32828-6,,,,2318.187672230755,
313,MLS Listing,,Single Family Residential,610 Wood Hollow Ct,APOPKA,FL,32712,380000.0,5,3.0,ROCK SPRINGS RIDGE PH 03,3220,20357,2002,5,118,35,Active,November-9-2019 12:00 PM,November-9-2019 04:00 PM,http://www.redfin.com/FL/Apopka/610-Wood-Hollow-Ct-32712/home/46960648,Stellar MLS,O5823124,N,Y,28.7440193,-81.526771,32712-5,,,,2487.500187046833,
314,MLS Listing,,Single Family Residential,175 Brooks Field Dr,WINTER GARDEN,FL,34787,487838.0,5,3.5,MCALLISTER LANDING PHASE 2,3628,8623,2020,5,134,11,Active,November-9-2019 12:00 PM,November-9-2019 05:00 PM,http://www.redfin.com/FL/Winter-Garden/175-Brooks-Field-DR-34787/home/169637651,Stellar MLS,O5823291,N,Y,28.49859,-81.621237,34787-5,,,,3094.0889901277715,
315,MLS Listing,,Single Family Residential,14106 Chicora Crossing Blvd,ORLANDO,FL,32828,450000.0,4,3.5,AVALON PARK VILLAGE 02 44/68,3234,9003,2003,5,139,90,Active,,,http://www.redfin.com/FL/Orlando/14106-Chicora-Crossing-Blvd-32828/home/46941858,Stellar MLS,O5823082,N,Y,28.5079094,-81.144491,32828-4,2062.5,4,32828,2881.250221502829,-818.7502215028289
